{"type": "FeatureCollection", "features": [{"properties": {"name": "Seba T - p\u0159\u00e1delna 01, Tanvald", "btype": "Are\u00e1l (plocha s budovami)", "prev_usage": "Pr\u016fmysl", "new_usage": "Pr\u016fmysl a podnik\u00e1n\u00ed (slu\u017eby, obchod, kancel\u00e1\u0159e)", "area": "12921.0", "ecology": "Nev\u00edm", "ownership": "Soukrom\u00e9"}, "geometry": {"type": "Point", "coordinates": [15.309630555555556, 50.737430555555555]}, "type": "Feature"}, {"properties": {"name": "AK 1324 s.r.o. (b\u00fdval\u00e1 vag\u00f3nka), Stud\u00e9nka", "btype": "Are\u00e1l (plocha s budovami)", "prev_usage": "Pr\u016fmysl", "new_usage": "Pr\u016fmysl a podnik\u00e1n\u00ed (slu\u017eby, obchod, kancel\u00e1\u0159e)", "area": "71500.0", "ecology": "Nev\u00edm", "ownership": "Soukrom\u00e9"}, "geometry": {"type": "Point", "coordinates": [18.054614722222222, 49.70653138888889]}, "type": "Feature"}, {"properties": {"name": "V\u00fdrobn\u00ed a skladovac\u00ed are\u00e1l Svat\u00fd \u0160t\u011bp\u00e1n, Brumov-Bylnice", "btype": "Are\u00e1l (plocha s budovami)", "prev_usage": "Pr\u016fmysl", "new_usage": "Pr\u016fmysl a podnik\u00e1n\u00ed (slu\u017eby, obchod, kancel\u00e1\u0159e)", "area": "12979.0", "ecology": "Nev\u00edm", "ownership": "Soukrom\u00e9"}, "geometry": {"type": "Point", "coordinates": [18.029144444444444, 49.04886833333333]}, "type": "Feature"}, {"properties": {"name": "Pozemky v are\u00e1lu Moravsk\u00fdch \u017eelez\u00e1ren, Olomouc", "btype": "Pozemek (plocha bez objekt\u016f)", "prev_usage": "Pr\u016fmysl", "new_usage": "Pr\u016fmysl a podnik\u00e1n\u00ed (slu\u017eby, obchod, kancel\u00e1\u0159e)", "area": "550000.0", "ecology": "Nev\u00edm", "ownership": "Soukrom\u00e9"}, "geometry": {"type": "Point", "coordinates": [17.231363888888886, 49.612566666666666]}, "type": "Feature"}, {"properties": {"name": "Hala pro skladov\u00e1n\u00ed - objekt b\u00fdval\u00e9 kotelny", "btype": "Are\u00e1l (plocha s budovami)", "prev_usage": "Pr\u016fmysl", "new_usage": "Pr\u016fmysl a podnik\u00e1n\u00ed (slu\u017eby, obchod, kancel\u00e1\u0159e)", "area": "1710.0", "ecology": "Nev\u00edm", "ownership": "Soukrom\u00e9"}, "geometry": {"type": "Point", "coordinates": [15.896533333333332, 49.210225]}, "type": "Feature"}, {"properties": {"name": "Arm\u00e1dn\u00ed za\u0159\u00edzen\u00ed, \u017datec", "btype": "Are\u00e1l (plocha s budovami)", "prev_usage": "Ob\u010dansk\u00e1 vybavenost (kulturn\u00ed domy, slu\u017eby, obchod, atd.)", "new_usage": "Sm\u00ed\u0161en\u00e9 m\u011bstsk\u00e9 funkce (obchod, bydlen\u00ed,..)", "area": "996.0", "ecology": "Nev\u00edm", "ownership": "Ve\u0159ejn\u00e9"}, "geometry": {"type": "Point", "coordinates": [13.545469722222222, 50.32614388888889]}, "type": "Feature"}, {"properties": {"name": "Zem\u011bd\u011blsk\u00fd are\u00e1l, Koka\u0161ice", "btype": "Are\u00e1l (plocha s budovami)", "prev_usage": "Zem\u011bd\u011blstv\u00ed", "new_usage": "Pr\u016fmysl a podnik\u00e1n\u00ed (slu\u017eby, obchod, kancel\u00e1\u0159e)", "area": "30000.0", "ecology": "Nev\u00edm", "ownership": "Soukrom\u00e9"}, "geometry": {"type": "Point", "coordinates": [12.948553055555555, 49.8765575]}, "type": "Feature"}, {"properties": {"name": "S\u00fdpka Pern\u0161t\u00fdn v Litomy\u0161li", "btype": "Are\u00e1l (plocha s budovami)", "prev_usage": "Zem\u011bd\u011blstv\u00ed", "new_usage": "Pr\u016fmysl a podnik\u00e1n\u00ed (slu\u017eby, obchod, kancel\u00e1\u0159e)", "area": "7103.0", "ecology": "Nev\u00edm", "ownership": "Soukrom\u00e9"}, "geometry": {"type": "Point", "coordinates": [16.29476388888889, 49.88033333333333]}, "type": "Feature"}, {"properties": {"name": "B\u00fdval\u00fd are\u00e1l Prost\u011bjovsk\u00e9ho pivovaru, Prost\u011bjov, Vrahovick\u00e1 ulice", "btype": "Are\u00e1l (plocha s budovami)", "prev_usage": "Pr\u016fmysl", "new_usage": "Pr\u016fmysl a podnik\u00e1n\u00ed (slu\u017eby, obchod, kancel\u00e1\u0159e)", "area": "38800.0", "ecology": "Nev\u00edm", "ownership": "Soukrom\u00e9"}, "geometry": {"type": "Point", "coordinates": [17.133308333333332, 49.47759166666667]}, "type": "Feature"}, {"properties": {"name": "Vila ve Varnsdorfu", "btype": "Are\u00e1l (plocha s budovami)", "prev_usage": "Jin\u00e9", "new_usage": "Sm\u00ed\u0161en\u00e9 m\u011bstsk\u00e9 funkce (obchod, bydlen\u00ed,..)", "area": "2671.0", "ecology": "Nev\u00edm", "ownership": "Soukrom\u00e9"}, "geometry": {"type": "Point", "coordinates": [14.607747222222223, 50.918327777777776]}, "type": "Feature"}, {"properties": {"name": "svazarmovsk\u00e1 st\u0159elnice a p\u00edskovna", "btype": "Pozemek (plocha bez objekt\u016f)", "prev_usage": "T\u011b\u017eba surovin", "new_usage": "Sm\u00ed\u0161en\u00e1 zem\u011bd\u011blsk\u00e1 funkce", "area": "9181.0", "ecology": "Nev\u00edm", "ownership": "Soukrom\u00e9"}, "geometry": {"type": "Point", "coordinates": [14.777927777777778, 49.730155555555555]}, "type": "Feature"}, {"properties": {"name": "Park Evropsk\u00e1 P\u0159\u00edbram", "btype": "Are\u00e1l (plocha s budovami)", "prev_usage": "Pr\u016fmysl", "new_usage": "Pr\u016fmysl a podnik\u00e1n\u00ed (slu\u017eby, obchod, kancel\u00e1\u0159e)", "area": "26940.0", "ecology": "Nev\u00edm", "ownership": "Soukrom\u00e9"}, "geometry": {"type": "Point", "coordinates": [14.015805555555556, 49.69650277777777]}, "type": "Feature"}, {"properties": {"name": "V\u00fdrobn\u00ed, skladov\u00fd a administrativn\u00ed objekt v Mirovic\u00edch", "btype": "Are\u00e1l (plocha s budovami)", "prev_usage": "Zem\u011bd\u011blstv\u00ed", "new_usage": "Sm\u00ed\u0161en\u00e1 zem\u011bd\u011blsk\u00e1 funkce", "area": "11603.0", "ecology": "Nev\u00edm", "ownership": "Soukrom\u00e9"}, "geometry": {"type": "Point", "coordinates": [14.047048333333333, 49.51736777777778]}, "type": "Feature"}, {"properties": {"name": "Pr\u016fmyslov\u00fd are\u00e1l Lu\u010dany nad Nisou", "btype": "Are\u00e1l (plocha s budovami)", "prev_usage": "Pr\u016fmysl", "new_usage": "Pr\u016fmysl a podnik\u00e1n\u00ed (slu\u017eby, obchod, kancel\u00e1\u0159e)", "area": "12053.0", "ecology": "Nev\u00edm", "ownership": "Soukrom\u00e9"}, "geometry": {"type": "Point", "coordinates": [15.227977777777777, 50.741080555555556]}, "type": "Feature"}, {"properties": {"name": "Are\u00e1l pro komer\u010dn\u00ed vyu\u017eit\u00ed - Su\u0161icko", "btype": "Are\u00e1l (plocha s budovami)", "prev_usage": "Jin\u00e9", "new_usage": "Pr\u016fmysl a podnik\u00e1n\u00ed (slu\u017eby, obchod, kancel\u00e1\u0159e)", "area": "35680.0", "ecology": "Nev\u00edm", "ownership": "Soukrom\u00e9"}, "geometry": {"type": "Point", "coordinates": [13.480261666666667, 49.195458888888886]}, "type": "Feature"}, {"properties": {"name": "Mont\u00e1\u017ee P\u0159erov - administrativn\u00ed budovy Brabansko", "btype": "Are\u00e1l (plocha s budovami)", "prev_usage": "Jin\u00e9", "new_usage": "Sm\u00ed\u0161en\u00e9 m\u011bstsk\u00e9 funkce (obchod, bydlen\u00ed,..)", "area": "6254.0", "ecology": "Nev\u00edm", "ownership": "Soukrom\u00e9"}, "geometry": {"type": "Point", "coordinates": [17.44731388888889, 49.457747222222224]}, "type": "Feature"}, {"properties": {"name": "Zem\u011bd\u011blsk\u00e1 stavba pro chov krav", "btype": "Objekt (jedna budova)", "prev_usage": "Zem\u011bd\u011blstv\u00ed", "new_usage": "Zem\u011bd\u011blstv\u00ed", "area": "1000.0", "ecology": "Nev\u00edm", "ownership": "Kombinovan\u00e9"}, "geometry": {"type": "Point", "coordinates": [18.298455555555556, 49.59974166666667]}, "type": "Feature"}, {"properties": {"name": "Are\u00e1l v Bene\u0161ov\u011b nad Plou\u010dnic\u00ed", "btype": "Are\u00e1l (plocha s budovami)", "prev_usage": "Pr\u016fmysl", "new_usage": "Pr\u016fmysl, monofunkce", "area": "15682.0", "ecology": "Nev\u00edm", "ownership": "Soukrom\u00e9"}, "geometry": {"type": "Point", "coordinates": [14.306500000000002, 50.739222222222224]}, "type": "Feature"}, {"properties": {"name": "KAZETO P\u0159erov", "btype": "Are\u00e1l (plocha s budovami)", "prev_usage": "Pr\u016fmysl", "new_usage": "Pr\u016fmysl a podnik\u00e1n\u00ed (slu\u017eby, obchod, kancel\u00e1\u0159e)", "area": "7565.0", "ecology": "Nev\u00edm", "ownership": "Soukrom\u00e9"}, "geometry": {"type": "Point", "coordinates": [17.442475, 49.44924444444444]}, "type": "Feature"}, {"properties": {"name": "\u010cerpac\u00ed stanice a skladovac\u00ed are\u00e1l Velk\u00e1 Byst\u0159ice", "btype": "Are\u00e1l (plocha s budovami)", "prev_usage": "Doprava", "new_usage": "Pr\u016fmysl a podnik\u00e1n\u00ed (slu\u017eby, obchod, kancel\u00e1\u0159e)", "area": "5500.0", "ecology": "Nev\u00edm", "ownership": "Soukrom\u00e9"}, "geometry": {"type": "Point", "coordinates": [17.351255555555557, 49.592111111111116]}, "type": "Feature"}, {"properties": {"name": "Are\u00e1l GAFFA, Vesel\u00ed nad Lu\u017enic\u00ed", "btype": "Are\u00e1l (plocha s budovami)", "prev_usage": "Pr\u016fmysl", "new_usage": "Pr\u016fmysl, monofunkce", "area": "87646.0", "ecology": "Nev\u00edm", "ownership": "Soukrom\u00e9"}, "geometry": {"type": "Point", "coordinates": [14.716880555555555, 49.203966666666666]}, "type": "Feature"}, {"properties": {"name": "Are\u00e1l b\u00fdval\u00e9ho dru\u017estva, sil\u00e1\u017en\u00ed j\u00e1my, obec Vedrovice", "btype": "Pozemek (plocha bez objekt\u016f)", "prev_usage": "Zem\u011bd\u011blstv\u00ed", "new_usage": "Jin\u00e9 (doprava, skl\u00e1dky, atd.)", "area": "2593.0", "ecology": "Nev\u00edm", "ownership": "Kombinovan\u00e9"}, "geometry": {"type": "Point", "coordinates": [16.381466666666668, 49.019930555555554]}, "type": "Feature"}, {"properties": {"name": "SUBLIMA CZ, s.r.o.", "btype": "Are\u00e1l (plocha s budovami)", "prev_usage": "Pr\u016fmysl", "new_usage": "Pr\u016fmysl, monofunkce", "area": "331073.0", "ecology": "Nev\u00edm", "ownership": "Soukrom\u00e9"}, "geometry": {"type": "Point", "coordinates": [13.97583888888889, 49.55685277777778]}, "type": "Feature"}, {"properties": {"name": "B\u00fdval\u00fd teletn\u00edk Libo\u0161", "btype": "Objekt (jedna budova)", "prev_usage": "Zem\u011bd\u011blstv\u00ed", "new_usage": "Pr\u016fmysl, monofunkce", "area": "3000.0", "ecology": "Nev\u00edm", "ownership": "Soukrom\u00e9"}, "geometry": {"type": "Point", "coordinates": [17.22019444444444, 49.69419166666666]}, "type": "Feature"}, {"properties": {"name": "B\u00fdval\u00e1 v\u00fdkrmna prasat B\u0159ezov\u00e9", "btype": "Objekt (jedna budova)", "prev_usage": "Zem\u011bd\u011blstv\u00ed", "new_usage": "Jin\u00e9 (doprava, skl\u00e1dky, atd.)", "area": "599.0", "ecology": "Nev\u00edm", "ownership": "Soukrom\u00e9"}, "geometry": {"type": "Point", "coordinates": [17.124011111111113, 49.679424999999995]}, "type": "Feature"}, {"properties": {"name": "Dv\u016fr Pe\u0161kov, Otrokovice", "btype": "Are\u00e1l (plocha s budovami)", "prev_usage": "Zem\u011bd\u011blstv\u00ed", "new_usage": null, "area": "14177.0", "ecology": "Nev\u00edm", "ownership": "Soukrom\u00e9"}, "geometry": {"type": "Point", "coordinates": [17.526355555555554, 49.23612222222222]}, "type": "Feature"}, {"properties": {"name": "Pivovar Jev\u00ed\u010dko", "btype": "Are\u00e1l (plocha s budovami)", "prev_usage": "Pr\u016fmysl", "new_usage": "Pr\u016fmysl a podnik\u00e1n\u00ed (slu\u017eby, obchod, kancel\u00e1\u0159e)", "area": "20143.0", "ecology": "Nev\u00edm", "ownership": "Soukrom\u00e9"}, "geometry": {"type": "Point", "coordinates": [16.712069444444445, 49.627944444444445]}, "type": "Feature"}, {"properties": {"name": "VLK", "btype": "Are\u00e1l (plocha s budovami)", "prev_usage": "Pr\u016fmysl", "new_usage": "Ob\u010dansk\u00e1 vybavenost", "area": "3655.0", "ecology": "Nev\u00edm", "ownership": "Ve\u0159ejn\u00e9"}, "geometry": {"type": "Point", "coordinates": [14.140830555555555, 50.455650000000006]}, "type": "Feature"}, {"properties": {"name": "Nevyu\u017eit\u00fd objekt \u010d.p. 121 s pozemkem", "btype": "Are\u00e1l (plocha s budovami)", "prev_usage": "Bydlen\u00ed", "new_usage": "Pr\u016fmysl a podnik\u00e1n\u00ed (slu\u017eby, obchod, kancel\u00e1\u0159e)", "area": "3032.0", "ecology": "Nev\u00edm", "ownership": "Soukrom\u00e9"}, "geometry": {"type": "Point", "coordinates": [17.159655555555553, 49.34650277777778]}, "type": "Feature"}, {"properties": {"name": "PREKONA P\u0159erov s r.o.", "btype": "Are\u00e1l (plocha s budovami)", "prev_usage": "Jin\u00e9", "new_usage": "Pr\u016fmysl a podnik\u00e1n\u00ed (slu\u017eby, obchod, kancel\u00e1\u0159e)", "area": "18000.0", "ecology": "Nev\u00edm", "ownership": "Soukrom\u00e9"}, "geometry": {"type": "Point", "coordinates": [17.41294444444444, 49.44189166666666]}, "type": "Feature"}, {"properties": {"name": "Hala 850 m2 pro pr\u016fmysl s pozemkem \u0160umperk", "btype": "Objekt (jedna budova)", "prev_usage": "Pr\u016fmysl", "new_usage": "Pr\u016fmysl a podnik\u00e1n\u00ed (slu\u017eby, obchod, kancel\u00e1\u0159e)", "area": "850.0", "ecology": "Ne", "ownership": "Soukrom\u00e9"}, "geometry": {"type": "Point", "coordinates": [16.99143888888889, 49.96168611111111]}, "type": "Feature"}, {"properties": {"name": "B\u00fdval\u00e1 ovocn\u00e1 \u0161kolka Mezice", "btype": "Are\u00e1l (plocha s budovami)", "prev_usage": "Zem\u011bd\u011blstv\u00ed", "new_usage": "Zem\u011bd\u011blstv\u00ed", "area": "1309.0", "ecology": "Ne", "ownership": "Soukrom\u00e9"}, "geometry": {"type": "Point", "coordinates": [17.115280555555557, 49.65680833333333]}, "type": "Feature"}, {"properties": {"name": "Pr\u016fmyslov\u00fd are\u00e1l \u0160umperk", "btype": "Are\u00e1l (plocha s budovami)", "prev_usage": "Pr\u016fmysl", "new_usage": "Pr\u016fmysl a podnik\u00e1n\u00ed (slu\u017eby, obchod, kancel\u00e1\u0159e)", "area": "40000.0", "ecology": "Ne", "ownership": "Soukrom\u00e9"}, "geometry": {"type": "Point", "coordinates": [16.990947222222225, 49.96197222222222]}, "type": "Feature"}, {"properties": {"name": "Hala 600 m2 s pozemkem \u0160umperk", "btype": "Objekt (jedna budova)", "prev_usage": "Pr\u016fmysl", "new_usage": "Pr\u016fmysl a podnik\u00e1n\u00ed (slu\u017eby, obchod, kancel\u00e1\u0159e)", "area": "20000.0", "ecology": "Ne", "ownership": "Soukrom\u00e9"}, "geometry": {"type": "Point", "coordinates": [16.9918, 49.96132777777778]}, "type": "Feature"}, {"properties": {"name": "Are\u00e1l b\u00fdval\u00fdch l\u00e1zn\u00ed v\u010d. p\u0159ilehl\u00e9ho l\u00e1ze\u0148sk\u00e9ho hotelu", "btype": "Are\u00e1l (plocha s budovami)", "prev_usage": "Cestovn\u00ed ruch", "new_usage": "Cestovn\u00ed ruch", "area": "68723.0", "ecology": "Ne", "ownership": "Ve\u0159ejn\u00e9"}, "geometry": {"type": "Point", "coordinates": [14.689266666666667, 50.18986111111111]}, "type": "Feature"}, {"properties": {"name": "Are\u00e1l \u010ceradice", "btype": "Are\u00e1l (plocha s budovami)", "prev_usage": "Zem\u011bd\u011blstv\u00ed", "new_usage": "Bydlen\u00ed", "area": "20675.0", "ecology": "Lze p\u0159edpokl\u00e1dat", "ownership": "Soukrom\u00e9"}, "geometry": {"type": "Point", "coordinates": [13.496844444444443, 50.308952777777776]}, "type": "Feature"}, {"properties": {"name": "Hala Z\u00e1ryby", "btype": "Objekt (jedna budova)", "prev_usage": "Pr\u016fmysl", "new_usage": "Pr\u016fmysl a podnik\u00e1n\u00ed (slu\u017eby, obchod, kancel\u00e1\u0159e)", "area": "1497.0", "ecology": null, "ownership": "Soukrom\u00e9"}, "geometry": {"type": "Point", "coordinates": [14.620611111111112, 50.217597222222224]}, "type": "Feature"}, {"properties": {"name": "Are\u00e1l b\u00fdval\u00e9ho velkokapacitn\u00edho vep\u0159\u00edna", "btype": "Are\u00e1l (plocha s budovami)", "prev_usage": "Zem\u011bd\u011blstv\u00ed", "new_usage": "Pr\u016fmysl a podnik\u00e1n\u00ed (slu\u017eby, obchod, kancel\u00e1\u0159e)", "area": "86865.0", "ecology": "Ne", "ownership": "Ve\u0159ejn\u00e9"}, "geometry": {"type": "Point", "coordinates": [14.732777777777779, 50.645833333333336]}, "type": "Feature"}, {"properties": {"name": "Pozemky pro pr\u016fmyslovou v\u00fdrobu Kou\u0159im u Kol\u00edna", "btype": "Are\u00e1l (plocha s budovami)", "prev_usage": "Zem\u011bd\u011blstv\u00ed", "new_usage": "Pr\u016fmysl, monofunkce", "area": "32415.0", "ecology": "Ne", "ownership": "Soukrom\u00e9"}, "geometry": {"type": "Point", "coordinates": [15.01098611111111, 49.99993888888889]}, "type": "Feature"}, {"properties": {"name": "B\u00fdval\u00fd are\u00e1l \u017eivo\u010di\u0161n\u00e9 v\u00fdroby, T\u0159emo\u0161nice - Skalka", "btype": "Are\u00e1l (plocha s budovami)", "prev_usage": "Zem\u011bd\u011blstv\u00ed", "new_usage": "Pr\u016fmysl, monofunkce", "area": "48000.0", "ecology": "Ne", "ownership": "Soukrom\u00e9"}, "geometry": {"type": "Point", "coordinates": [15.582583333333334, 49.851505555555555]}, "type": "Feature"}, {"properties": {"name": "\u010c\u00e1st v\u00fdrobn\u00edho are\u00e1lu v \u0160enov\u011b (Insolvence dlu\u017en\u00edka: V.I.T. GROUP, s.r.o., I\u010c: 25888188)", "btype": "Are\u00e1l (plocha s budovami)", "prev_usage": "Zem\u011bd\u011blstv\u00ed", "new_usage": "Zem\u011bd\u011blstv\u00ed", "area": "121270.0", "ecology": "Lze p\u0159edpokl\u00e1dat", "ownership": "Soukrom\u00e9"}, "geometry": {"type": "Point", "coordinates": [18.390833333333333, 49.78944444444444]}, "type": "Feature"}, {"properties": {"name": "Meopta - optika - objekt \u010d. 13", "btype": "Are\u00e1l (plocha s budovami)", "prev_usage": "Pr\u016fmysl", "new_usage": "Pr\u016fmysl, monofunkce", "area": "1020.0", "ecology": "Ne", "ownership": "Soukrom\u00e9"}, "geometry": {"type": "Point", "coordinates": [17.475041666666666, 49.45358055555556]}, "type": "Feature"}, {"properties": {"name": "Stavebn\u00ed objekt b\u00fdval\u00e9 tov\u00e1rny na v\u00fdrobu textiln\u00edch p\u0159\u00edz\u00ed, Svatava", "btype": "Are\u00e1l (plocha s budovami)", "prev_usage": "Pr\u016fmysl", "new_usage": "Pr\u016fmysl a podnik\u00e1n\u00ed (slu\u017eby, obchod, kancel\u00e1\u0159e)", "area": "5186.0", "ecology": "Ne", "ownership": "Soukrom\u00e9"}, "geometry": {"type": "Point", "coordinates": [12.620311111111112, 50.195411111111106]}, "type": "Feature"}, {"properties": {"name": "Tov\u00e1rn\u00ed are\u00e1l Mohelnice", "btype": "Are\u00e1l (plocha s budovami)", "prev_usage": "Pr\u016fmysl", "new_usage": "Pr\u016fmysl, monofunkce", "area": "20771.0", "ecology": "Ne", "ownership": "Soukrom\u00e9"}, "geometry": {"type": "Point", "coordinates": [16.920369444444447, 49.7709]}, "type": "Feature"}, {"properties": {"name": "RP Brozany nad Oh\u0159\u00ed", "btype": "Are\u00e1l (plocha s budovami)", "prev_usage": "Zem\u011bd\u011blstv\u00ed", "new_usage": "Pr\u016fmysl a podnik\u00e1n\u00ed (slu\u017eby, obchod, kancel\u00e1\u0159e)", "area": "44350.0", "ecology": "Ne", "ownership": "Soukrom\u00e9"}, "geometry": {"type": "Point", "coordinates": [14.138763888888889, 50.45968611111111]}, "type": "Feature"}, {"properties": {"name": "\u010cesk\u00fd Brod - are\u00e1l b\u00fdval\u00e9 cihelny", "btype": "Are\u00e1l (plocha s budovami)", "prev_usage": "Pr\u016fmysl", "new_usage": "Pr\u016fmysl a podnik\u00e1n\u00ed (slu\u017eby, obchod, kancel\u00e1\u0159e)", "area": "32000.0", "ecology": "Ne", "ownership": "Soukrom\u00e9"}, "geometry": {"type": "Point", "coordinates": [14.84511388888889, 50.05853055555555]}, "type": "Feature"}, {"properties": {"name": "B\u00fdval\u00e9 koupali\u0161t\u011b, Horn\u00ed Jelen\u00ed", "btype": "Pozemek (plocha bez objekt\u016f)", "prev_usage": "Cestovn\u00ed ruch", "new_usage": "Cestovn\u00ed ruch", "area": "30000.0", "ecology": "Ne", "ownership": "Ve\u0159ejn\u00e9"}, "geometry": {"type": "Point", "coordinates": [16.091147222222222, 50.04651388888889]}, "type": "Feature"}, {"properties": {"name": "Objekt b\u00fdval\u00e9 pr\u016fmyslov\u00e9 \u0161koly v A\u0161i", "btype": "Are\u00e1l (plocha s budovami)", "prev_usage": "Ob\u010dansk\u00e1 vybavenost (kulturn\u00ed domy, slu\u017eby, obchod, atd.)", "new_usage": "Ob\u010dansk\u00e1 vybavenost", "area": "2336.0", "ecology": "Ne", "ownership": "Ve\u0159ejn\u00e9"}, "geometry": {"type": "Point", "coordinates": [12.187008333333333, 50.220647222222226]}, "type": "Feature"}, {"properties": {"name": "Objekty b\u00fdval\u00fdch kas\u00e1ren, Kl\u00e1\u0161terec nad Orlic\u00ed", "btype": "Are\u00e1l (plocha s budovami)", "prev_usage": "Vojensk\u00e9 are\u00e1ly, kas\u00e1rny, st\u0159elnice", "new_usage": "Pr\u016fmysl a podnik\u00e1n\u00ed (slu\u017eby, obchod, kancel\u00e1\u0159e)", "area": "17250.0", "ecology": "Lze p\u0159edpokl\u00e1dat", "ownership": "Soukrom\u00e9"}, "geometry": {"type": "Point", "coordinates": [16.53725277777778, 50.11239722222222]}, "type": "Feature"}, {"properties": {"name": "Boskovice", "btype": "Are\u00e1l (plocha s budovami)", "prev_usage": "Pr\u016fmysl", "new_usage": "Pr\u016fmysl a podnik\u00e1n\u00ed (slu\u017eby, obchod, kancel\u00e1\u0159e)", "area": "2700.0", "ecology": "Ne", "ownership": "Soukrom\u00e9"}, "geometry": {"type": "Point", "coordinates": [16.68688611111111, 49.48247222222222]}, "type": "Feature"}, {"properties": {"name": "Sklady D\u00fd\u0161ina", "btype": "Are\u00e1l (plocha s budovami)", "prev_usage": "Pr\u016fmysl", "new_usage": "Pr\u016fmysl a podnik\u00e1n\u00ed (slu\u017eby, obchod, kancel\u00e1\u0159e)", "area": "21329.0", "ecology": "Ne", "ownership": "Soukrom\u00e9"}, "geometry": {"type": "Point", "coordinates": [12.487677777777776, 49.77105]}, "type": "Feature"}, {"properties": {"name": "Rozvojov\u00e1 plocha Nov\u00e9 M\u011bsto nad Metuj\u00ed", "btype": "Are\u00e1l (plocha s budovami)", "prev_usage": "Vojensk\u00e9 are\u00e1ly, kas\u00e1rny, st\u0159elnice", "new_usage": "Ob\u010dansk\u00e1 vybavenost", "area": "30414.0", "ecology": "Ne", "ownership": "Ve\u0159ejn\u00e9"}, "geometry": {"type": "Point", "coordinates": [16.15128611111111, 50.356966666666665]}, "type": "Feature"}, {"properties": {"name": "Are\u00e1l GP R\u00fdma\u0159ov", "btype": "Are\u00e1l (plocha s budovami)", "prev_usage": "Pr\u016fmysl", "new_usage": "Pr\u016fmysl a podnik\u00e1n\u00ed (slu\u017eby, obchod, kancel\u00e1\u0159e)", "area": "3511.0", "ecology": "Ne", "ownership": "Soukrom\u00e9"}, "geometry": {"type": "Point", "coordinates": [17.29653888888889, 49.931061111111106]}, "type": "Feature"}, {"properties": {"name": "Prosmyky", "btype": "Pozemek (plocha bez objekt\u016f)", "prev_usage": "Zem\u011bd\u011blstv\u00ed", "new_usage": "Pr\u016fmysl a podnik\u00e1n\u00ed (slu\u017eby, obchod, kancel\u00e1\u0159e)", "area": "158294.0", "ecology": "Lze p\u0159edpokl\u00e1dat", "ownership": "Soukrom\u00e9"}, "geometry": {"type": "Point", "coordinates": [14.095430555555556, 50.51645833333333]}, "type": "Feature"}, {"properties": {"name": "Vila u Doln\u00edho ml\u00fdna", "btype": "Objekt (jedna budova)", "prev_usage": "Ob\u010dansk\u00e1 vybavenost (kulturn\u00ed domy, slu\u017eby, obchod, atd.)", "new_usage": "Ob\u010dansk\u00e1 vybavenost", "area": "10000.0", "ecology": "Ne", "ownership": "Soukrom\u00e9"}, "geometry": {"type": "Point", "coordinates": [17.90307222222222, 49.62578055555556]}, "type": "Feature"}, {"properties": {"name": "Kas\u00e1rna Ne\u0159ed\u00edn - 1. etapa", "btype": "Are\u00e1l (plocha s budovami)", "prev_usage": "Vojensk\u00e9 are\u00e1ly, kas\u00e1rny, st\u0159elnice", "new_usage": "Pr\u016fmysl a podnik\u00e1n\u00ed (slu\u017eby, obchod, kancel\u00e1\u0159e)", "area": "110400.0", "ecology": "Ne", "ownership": "Kombinovan\u00e9"}, "geometry": {"type": "Point", "coordinates": [17.203705555555555, 49.592286111111115]}, "type": "Feature"}, {"properties": {"name": "Z\u00e1padn\u00ed z\u00f3na", "btype": "Pozemek (plocha bez objekt\u016f)", "prev_usage": "Vojensk\u00e9 are\u00e1ly, kas\u00e1rny, st\u0159elnice", "new_usage": "Pr\u016fmysl a podnik\u00e1n\u00ed (slu\u017eby, obchod, kancel\u00e1\u0159e)", "area": "66000.0", "ecology": "Ne", "ownership": "Ve\u0159ejn\u00e9"}, "geometry": {"type": "Point", "coordinates": [17.44087222222222, 49.990116666666665]}, "type": "Feature"}, {"properties": {"name": "Kotelna", "btype": "Are\u00e1l (plocha s budovami)", "prev_usage": "Pr\u016fmysl", "new_usage": "Pr\u016fmysl, monofunkce", "area": "13300.0", "ecology": null, "ownership": "Soukrom\u00e9"}, "geometry": {"type": "Point", "coordinates": [15.324349999999999, 50.61294166666667]}, "type": "Feature"}, {"properties": {"name": "B\u00fdval\u00fd kulturn\u00ed d\u016fm v centru Velk\u00e9 Byst\u0159ice", "btype": "Are\u00e1l (plocha s budovami)", "prev_usage": "Ob\u010dansk\u00e1 vybavenost (kulturn\u00ed domy, slu\u017eby, obchod, atd.)", "new_usage": "Pr\u016fmysl a podnik\u00e1n\u00ed (slu\u017eby, obchod, kancel\u00e1\u0159e)", "area": "840.0", "ecology": "Ne", "ownership": "Soukrom\u00e9"}, "geometry": {"type": "Point", "coordinates": [17.361372222222222, 49.59280277777778]}, "type": "Feature"}, {"properties": {"name": "Are\u00e1l nemocnice", "btype": "Are\u00e1l (plocha s budovami)", "prev_usage": "Ob\u010dansk\u00e1 vybavenost (kulturn\u00ed domy, slu\u017eby, obchod, atd.)", "new_usage": "Sm\u00ed\u0161en\u00e9 m\u011bstsk\u00e9 funkce (obchod, bydlen\u00ed,..)", "area": "28294.0", "ecology": "Ne", "ownership": "Ve\u0159ejn\u00e9"}, "geometry": {"type": "Point", "coordinates": [17.470836111111108, 49.994080555555556]}, "type": "Feature"}, {"properties": {"name": "Budova b\u00fdval\u00e9 M\u0160, Chornice", "btype": "Are\u00e1l (plocha s budovami)", "prev_usage": "Ob\u010dansk\u00e1 vybavenost (kulturn\u00ed domy, slu\u017eby, obchod, atd.)", "new_usage": "Ob\u010dansk\u00e1 vybavenost", "area": "5687.0", "ecology": "Ne", "ownership": "Ve\u0159ejn\u00e9"}, "geometry": {"type": "Point", "coordinates": [16.749372222222224, 49.67184722222222]}, "type": "Feature"}, {"properties": {"name": "B\u00fdval\u00e1 s\u00fdpka, Kle\u0161ice", "btype": "Objekt (jedna budova)", "prev_usage": "Zem\u011bd\u011blstv\u00ed", "new_usage": "Pr\u016fmysl a podnik\u00e1n\u00ed (slu\u017eby, obchod, kancel\u00e1\u0159e)", "area": "427.0", "ecology": "Ne", "ownership": "Ve\u0159ejn\u00e9"}, "geometry": {"type": "Point", "coordinates": [15.681705555555554, 49.962669444444444]}, "type": "Feature"}, {"properties": {"name": "B\u00fdval\u00fd zem\u011bd\u011blsk\u00fd are\u00e1l, Plchovice", "btype": "Are\u00e1l (plocha s budovami)", "prev_usage": "Zem\u011bd\u011blstv\u00ed", "new_usage": "Sm\u00ed\u0161en\u00e1 zem\u011bd\u011blsk\u00e1 funkce", "area": "1751.0", "ecology": "Ne", "ownership": "Soukrom\u00e9"}, "geometry": {"type": "Point", "coordinates": [16.182486111111114, 50.047075]}, "type": "Feature"}, {"properties": {"name": "\u010d.p. 56, M\u011bste\u010dko Trn\u00e1vka", "btype": "Objekt (jedna budova)", "prev_usage": "Ob\u010dansk\u00e1 vybavenost (kulturn\u00ed domy, slu\u017eby, obchod, atd.)", "new_usage": "Pr\u016fmysl a podnik\u00e1n\u00ed (slu\u017eby, obchod, kancel\u00e1\u0159e)", "area": "1141.0", "ecology": "Ne", "ownership": "Ve\u0159ejn\u00e9"}, "geometry": {"type": "Point", "coordinates": [16.727075, 49.70843888888889]}, "type": "Feature"}, {"properties": {"name": "D\u011bt\u0159ichov u Fr\u00fddlantu v \u010cech\u00e1ch", "btype": "Are\u00e1l (plocha s budovami)", "prev_usage": "Pr\u016fmysl", "new_usage": "Jin\u00e9 (doprava, skl\u00e1dky, atd.)", "area": "23792.0", "ecology": "Lze p\u0159edpokl\u00e1dat", "ownership": "Soukrom\u00e9"}, "geometry": {"type": "Point", "coordinates": [15.039369444444445, 50.89305]}, "type": "Feature"}, {"properties": {"name": "V\u00fdrobn\u00ed are\u00e1l - Ba\u0165a", "btype": "Are\u00e1l (plocha s budovami)", "prev_usage": "Pr\u016fmysl", "new_usage": "Pr\u016fmysl a podnik\u00e1n\u00ed (slu\u017eby, obchod, kancel\u00e1\u0159e)", "area": "3946.0", "ecology": "Ne", "ownership": "Soukrom\u00e9"}, "geometry": {"type": "Point", "coordinates": [17.40386388888889, 49.30329444444444]}, "type": "Feature"}, {"properties": {"name": "B\u00fdval\u00e1 zem\u011bd\u011blsk\u00e1 usedlost, Os\u00edk", "btype": "Objekt (jedna budova)", "prev_usage": "Bydlen\u00ed", "new_usage": "Ob\u010dansk\u00e1 vybavenost", "area": "819.0", "ecology": "Ne", "ownership": "Ve\u0159ejn\u00e9"}, "geometry": {"type": "Point", "coordinates": [16.28401666666667, 49.84306388888889]}, "type": "Feature"}, {"properties": {"name": "V\u00fdrobn\u00ed are\u00e1l - jatka", "btype": "Are\u00e1l (plocha s budovami)", "prev_usage": "Pr\u016fmysl", "new_usage": "Pr\u016fmysl a podnik\u00e1n\u00ed (slu\u017eby, obchod, kancel\u00e1\u0159e)", "area": "7543.0", "ecology": "Ne", "ownership": "Soukrom\u00e9"}, "geometry": {"type": "Point", "coordinates": [17.409491666666664, 49.29773611111111]}, "type": "Feature"}, {"properties": {"name": "Are\u00e1l \u00dajezde\u010dek Osada Dukla", "btype": "Are\u00e1l (plocha s budovami)", "prev_usage": "T\u011b\u017eba surovin", "new_usage": "Pr\u016fmysl a podnik\u00e1n\u00ed (slu\u017eby, obchod, kancel\u00e1\u0159e)", "area": "64325.0", "ecology": "Ne", "ownership": "Soukrom\u00e9"}, "geometry": {"type": "Point", "coordinates": [13.78011388888889, 50.65051666666667]}, "type": "Feature"}, {"properties": {"name": "b\u00fdval\u00e1 s\u00fdpka (silo) P\u0159\u00edbor", "btype": "Are\u00e1l (plocha s budovami)", "prev_usage": "Jin\u00e9", "new_usage": "Bydlen\u00ed", "area": "8361.0", "ecology": "Ne", "ownership": "Soukrom\u00e9"}, "geometry": {"type": "Point", "coordinates": [18.145366666666668, 49.64369166666667]}, "type": "Feature"}, {"properties": {"name": "Objekt v Uni\u010dov\u011b", "btype": "Objekt (jedna budova)", "prev_usage": "Bydlen\u00ed", "new_usage": "Ob\u010dansk\u00e1 vybavenost", "area": "386.0", "ecology": "Ne", "ownership": "Soukrom\u00e9"}, "geometry": {"type": "Point", "coordinates": [17.12543888888889, 49.76914444444444]}, "type": "Feature"}, {"properties": {"name": "Budovy v are\u00e1lu u z\u00e1mku (kon\u00edrna, domek spr\u00e1vce, budovy statku)", "btype": "Are\u00e1l (plocha s budovami)", "prev_usage": "Jin\u00e9", "new_usage": "Ob\u010dansk\u00e1 vybavenost", "area": "1848.0", "ecology": null, "ownership": "Ve\u0159ejn\u00e9"}, "geometry": {"type": "Point", "coordinates": [17.02645, 49.064363888888884]}, "type": "Feature"}, {"properties": {"name": "Vojensk\u00e1 rota Hamry", "btype": "Are\u00e1l (plocha s budovami)", "prev_usage": "Vojensk\u00e9 are\u00e1ly, kas\u00e1rny, st\u0159elnice", "new_usage": "Pr\u016fmysl a podnik\u00e1n\u00ed (slu\u017eby, obchod, kancel\u00e1\u0159e)", "area": "37072.0", "ecology": "Ne", "ownership": "Soukrom\u00e9"}, "geometry": {"type": "Point", "coordinates": [13.158058333333333, 49.21379166666667]}, "type": "Feature"}, {"properties": {"name": "B\u00fdval\u00fd zem\u011bd\u011blsk\u00fd are\u00e1l, Hyn\u010dice", "btype": "Are\u00e1l (plocha s budovami)", "prev_usage": "Zem\u011bd\u011blstv\u00ed", "new_usage": "Pr\u016fmysl a podnik\u00e1n\u00ed (slu\u017eby, obchod, kancel\u00e1\u0159e)", "area": "32322.0", "ecology": "Ne", "ownership": "Soukrom\u00e9"}, "geometry": {"type": "Point", "coordinates": [17.83694722222222, 49.62123888888889]}, "type": "Feature"}, {"properties": {"name": "Are\u00e1l b\u00fdval\u00e9 dr\u016fbe\u017e\u00e1rny Doub\u00ed u Liberce", "btype": "Are\u00e1l (plocha s budovami)", "prev_usage": "Zem\u011bd\u011blstv\u00ed", "new_usage": "Pr\u016fmysl, monofunkce", "area": "42925.0", "ecology": "Lze p\u0159edpokl\u00e1dat", "ownership": "Soukrom\u00e9"}, "geometry": {"type": "Point", "coordinates": [15.048291666666666, 50.73004166666667]}, "type": "Feature"}, {"properties": {"name": "Are\u00e1l \u017eivo\u010di\u0161n\u00e9 v\u00fdroby Ryb\u00ed", "btype": "Are\u00e1l (plocha s budovami)", "prev_usage": "Zem\u011bd\u011blstv\u00ed", "new_usage": "Ob\u010dansk\u00e1 vybavenost", "area": "20000.0", "ecology": null, "ownership": "Soukrom\u00e9"}, "geometry": {"type": "Point", "coordinates": [18.0748, 49.59728888888889]}, "type": "Feature"}, {"properties": {"name": "Zem\u011bd\u011blsk\u00e1 usedlost", "btype": "Are\u00e1l (plocha s budovami)", "prev_usage": "Zem\u011bd\u011blstv\u00ed", "new_usage": "Pr\u016fmysl a podnik\u00e1n\u00ed (slu\u017eby, obchod, kancel\u00e1\u0159e)", "area": "3090.0", "ecology": "Ne", "ownership": "Soukrom\u00e9"}, "geometry": {"type": "Point", "coordinates": [14.190394444444445, 50.42539444444444]}, "type": "Feature"}, {"properties": {"name": "Are\u00e1l pivovaru Krom\u011b\u0159\u00ed\u017e", "btype": "Are\u00e1l (plocha s budovami)", "prev_usage": "Pr\u016fmysl", "new_usage": "Pr\u016fmysl a podnik\u00e1n\u00ed (slu\u017eby, obchod, kancel\u00e1\u0159e)", "area": "6600.0", "ecology": "Ne", "ownership": "Soukrom\u00e9"}, "geometry": {"type": "Point", "coordinates": [17.391419444444445, 49.30052777777777]}, "type": "Feature"}, {"properties": {"name": "V\u00fdstavba v\u00fdrobn\u00edch a jin\u00fdch ploch", "btype": "Are\u00e1l (plocha s budovami)", "prev_usage": "Pr\u016fmysl", "new_usage": "Arm\u00e1da", "area": "24000.0", "ecology": "Ne", "ownership": "Soukrom\u00e9"}, "geometry": {"type": "Point", "coordinates": [18.18695277777778, 49.85398611111111]}, "type": "Feature"}, {"properties": {"name": "Halda Hrabov\u00e1", "btype": "Pozemek (plocha bez objekt\u016f)", "prev_usage": "Pr\u016fmysl", "new_usage": "Jin\u00e9 (doprava, skl\u00e1dky, atd.)", "area": "237000.0", "ecology": "Ne", "ownership": "Soukrom\u00e9"}, "geometry": {"type": "Point", "coordinates": [18.298202777777778, 49.76576111111111]}, "type": "Feature"}, {"properties": {"name": "Sklady Sedlec u Mostu - brambor\u00e1rna", "btype": "Are\u00e1l (plocha s budovami)", "prev_usage": "Pr\u016fmysl", "new_usage": "Pr\u016fmysl a podnik\u00e1n\u00ed (slu\u017eby, obchod, kancel\u00e1\u0159e)", "area": "61360.0", "ecology": "Ne", "ownership": "Soukrom\u00e9"}, "geometry": {"type": "Point", "coordinates": [13.706969444444443, 50.48815555555556]}, "type": "Feature"}, {"properties": {"name": "Dukelsk\u00e9 kas\u00e1rny Opava", "btype": "Are\u00e1l (plocha s budovami)", "prev_usage": "Vojensk\u00e9 are\u00e1ly, kas\u00e1rny, st\u0159elnice", "new_usage": "Sm\u00ed\u0161en\u00e9 m\u011bstsk\u00e9 funkce (obchod, bydlen\u00ed,..)", "area": "100175.0", "ecology": "Ne", "ownership": "Kombinovan\u00e9"}, "geometry": {"type": "Point", "coordinates": [17.883133333333333, 49.939880555555554]}, "type": "Feature"}, {"properties": {"name": "Stavebn\u00ed pozemek Ku\u0159\u00edvody - Ralsko", "btype": "Pozemek (plocha bez objekt\u016f)", "prev_usage": "Vojensk\u00e9 are\u00e1ly, kas\u00e1rny, st\u0159elnice", "new_usage": "Ob\u010dansk\u00e1 vybavenost", "area": "733461.0", "ecology": "Ne", "ownership": "Soukrom\u00e9"}, "geometry": {"type": "Point", "coordinates": [14.801058333333334, 50.57509166666667]}, "type": "Feature"}, {"properties": {"name": "Sem\u00edn 33", "btype": "Are\u00e1l (plocha s budovami)", "prev_usage": "Pr\u016fmysl", "new_usage": "Pr\u016fmysl a podnik\u00e1n\u00ed (slu\u017eby, obchod, kancel\u00e1\u0159e)", "area": "5000.0", "ecology": "Ne", "ownership": "Soukrom\u00e9"}, "geometry": {"type": "Point", "coordinates": [15.520886111111112, 50.04887222222222]}, "type": "Feature"}, {"properties": {"name": "are\u00e1l b\u00fdval\u00fdch pek\u00e1ren, Mlad\u00e1 Boleslav", "btype": "Are\u00e1l (plocha s budovami)", "prev_usage": "Pr\u016fmysl", "new_usage": "Pr\u016fmysl a podnik\u00e1n\u00ed (slu\u017eby, obchod, kancel\u00e1\u0159e)", "area": "8148.0", "ecology": "Ne", "ownership": "Soukrom\u00e9"}, "geometry": {"type": "Point", "coordinates": [14.90065, 50.40669444444444]}, "type": "Feature"}, {"properties": {"name": "Krav\u00edn Trst\u011bnice", "btype": "Are\u00e1l (plocha s budovami)", "prev_usage": "Zem\u011bd\u011blstv\u00ed", "new_usage": "Sm\u00ed\u0161en\u00e1 zem\u011bd\u011blsk\u00e1 funkce", "area": "8213.0", "ecology": "Lze p\u0159edpokl\u00e1dat", "ownership": "Soukrom\u00e9"}, "geometry": {"type": "Point", "coordinates": [16.340055555555555, 49.80239444444444]}, "type": "Feature"}, {"properties": {"name": "Poskliz\u0148ov\u00e1 linka a sklad Janov", "btype": "Are\u00e1l (plocha s budovami)", "prev_usage": "Zem\u011bd\u011blstv\u00ed", "new_usage": null, "area": "6664.0", "ecology": "Ne", "ownership": "Soukrom\u00e9"}, "geometry": {"type": "Point", "coordinates": [16.381019444444444, 49.84256111111112]}, "type": "Feature"}, {"properties": {"name": "Vojensk\u00fd are\u00e1l P\u0159\u00e1slavice", "btype": "Are\u00e1l (plocha s budovami)", "prev_usage": "Vojensk\u00e9 are\u00e1ly, kas\u00e1rny, st\u0159elnice", "new_usage": "Pr\u016fmysl a podnik\u00e1n\u00ed (slu\u017eby, obchod, kancel\u00e1\u0159e)", "area": "100000.0", "ecology": "Ne", "ownership": "Soukrom\u00e9"}, "geometry": {"type": "Point", "coordinates": [17.402505555555553, 49.59791388888889]}, "type": "Feature"}, {"properties": {"name": "B\u00fdval\u00fd cukrovar, Lu\u017eec nad Vltavou", "btype": "Are\u00e1l (plocha s budovami)", "prev_usage": "Jin\u00e9", "new_usage": "Pr\u016fmysl a podnik\u00e1n\u00ed (slu\u017eby, obchod, kancel\u00e1\u0159e)", "area": "27395.0", "ecology": "Ne", "ownership": "Soukrom\u00e9"}, "geometry": {"type": "Point", "coordinates": [14.407975, 50.32256916666667]}, "type": "Feature"}, {"properties": {"name": "Doln\u00ed Podlu\u017e\u00ed 154", "btype": "Are\u00e1l (plocha s budovami)", "prev_usage": "Pr\u016fmysl", "new_usage": "Pr\u016fmysl a podnik\u00e1n\u00ed (slu\u017eby, obchod, kancel\u00e1\u0159e)", "area": "10000.0", "ecology": null, "ownership": "Soukrom\u00e9"}, "geometry": {"type": "Point", "coordinates": [14.60845, 50.87934444444444]}, "type": "Feature"}, {"properties": {"name": "Tesla", "btype": "Are\u00e1l (plocha s budovami)", "prev_usage": "Pr\u016fmysl", "new_usage": "Pr\u016fmysl, monofunkce", "area": "300.0", "ecology": null, "ownership": "Soukrom\u00e9"}, "geometry": {"type": "Point", "coordinates": [15.84594388888889, 50.21490916666667]}, "type": "Feature"}, {"properties": {"name": "B\u00fdval\u00e1 ml\u00e9k\u00e1rna Brody", "btype": "Are\u00e1l (plocha s budovami)", "prev_usage": "Zem\u011bd\u011blstv\u00ed", "new_usage": "Pr\u016fmysl a podnik\u00e1n\u00ed (slu\u017eby, obchod, kancel\u00e1\u0159e)", "area": "31545.0", "ecology": "Ne", "ownership": "Soukrom\u00e9"}, "geometry": {"type": "Point", "coordinates": [13.340752777777778, 50.24848888888889]}, "type": "Feature"}, {"properties": {"name": "Hala s je\u0159\u00e1bem v pr\u016fmyslov\u00e9 z\u00f3n\u011b T\u0159eb\u00ed\u010d", "btype": "Are\u00e1l (plocha s budovami)", "prev_usage": "Pr\u016fmysl", "new_usage": "Pr\u016fmysl a podnik\u00e1n\u00ed (slu\u017eby, obchod, kancel\u00e1\u0159e)", "area": "1400.0", "ecology": "Ne", "ownership": "Soukrom\u00e9"}, "geometry": {"type": "Point", "coordinates": [15.899477777777777, 49.21018611111111]}, "type": "Feature"}, {"properties": {"name": "B\u00fdval\u00e1 \u0161kola v Bu\u0161\u00edn\u011b", "btype": "Objekt (jedna budova)", "prev_usage": "Ob\u010dansk\u00e1 vybavenost (kulturn\u00ed domy, slu\u017eby, obchod, atd.)", "new_usage": "Bydlen\u00ed", "area": "400.0", "ecology": null, "ownership": "Ve\u0159ejn\u00e9"}, "geometry": {"type": "Point", "coordinates": [16.83888333333333, 49.975794444444446]}, "type": "Feature"}, {"properties": {"name": "P\u00edskov\u00e9 doly", "btype": "Pozemek (plocha bez objekt\u016f)", "prev_usage": "Pr\u016fmysl", "new_usage": "Ob\u010dansk\u00e1 vybavenost", "area": "98000.0", "ecology": "Lze p\u0159edpokl\u00e1dat", "ownership": "Soukrom\u00e9"}, "geometry": {"type": "Point", "coordinates": [18.22583333333333, 49.80722222222222]}, "type": "Feature"}, {"properties": {"name": "e-logistics", "btype": "Are\u00e1l (plocha s budovami)", "prev_usage": "Zem\u011bd\u011blstv\u00ed", "new_usage": "Pr\u016fmysl a podnik\u00e1n\u00ed (slu\u017eby, obchod, kancel\u00e1\u0159e)", "area": "7000.0", "ecology": "Ne", "ownership": "Soukrom\u00e9"}, "geometry": {"type": "Point", "coordinates": [17.349194444444443, 49.07907777777778]}, "type": "Feature"}, {"properties": {"name": "Pr\u016fmyslov\u00fd are\u00e1l v Mimoni", "btype": "Are\u00e1l (plocha s budovami)", "prev_usage": "Pr\u016fmysl", "new_usage": null, "area": "36418.0", "ecology": null, "ownership": "Soukrom\u00e9"}, "geometry": {"type": "Point", "coordinates": [14.73988611111111, 50.652119444444445]}, "type": "Feature"}, {"properties": {"name": "Ostrov Doln\u00ed \u017d\u010f\u00e1r", "btype": "Are\u00e1l (plocha s budovami)", "prev_usage": "Pr\u016fmysl", "new_usage": null, "area": "36700.0", "ecology": null, "ownership": "Soukrom\u00e9"}, "geometry": {"type": "Point", "coordinates": [12.945244444444445, 50.32799444444445]}, "type": "Feature"}, {"properties": {"name": "Kutn\u00e1 Hora - are\u00e1l b\u00fdval\u00e9ho cukrovaru", "btype": "Are\u00e1l (plocha s budovami)", "prev_usage": "Pr\u016fmysl", "new_usage": "Sm\u00ed\u0161en\u00e9 m\u011bstsk\u00e9 funkce (obchod, bydlen\u00ed,..)", "area": "17000.0", "ecology": "Ne", "ownership": "Ve\u0159ejn\u00e9"}, "geometry": {"type": "Point", "coordinates": [15.276577777777778, 49.78158611111111]}, "type": "Feature"}, {"properties": {"name": "KINO \"800\", Milovice - Mlad\u00e1", "btype": "Objekt (jedna budova)", "prev_usage": "Vojensk\u00e9 are\u00e1ly, kas\u00e1rny, st\u0159elnice", "new_usage": "Sm\u00ed\u0161en\u00e9 m\u011bstsk\u00e9 funkce (obchod, bydlen\u00ed,..)", "area": "2434.0", "ecology": "Ne", "ownership": "Soukrom\u00e9"}, "geometry": {"type": "Point", "coordinates": [14.859752777777777, 50.23708055555556]}, "type": "Feature"}, {"properties": {"name": "Park Evropsk\u00e1 P\u0159\u00edbram, hala B s pozemkem", "btype": "Objekt (jedna budova)", "prev_usage": "Pr\u016fmysl", "new_usage": null, "area": "999.0", "ecology": null, "ownership": "Soukrom\u00e9"}, "geometry": {"type": "Point", "coordinates": [14.01501111111111, 49.696172222222216]}, "type": "Feature"}, {"properties": {"name": "Lihovar Merkl\u00edn", "btype": "Are\u00e1l (plocha s budovami)", "prev_usage": "Pr\u016fmysl", "new_usage": "Pr\u016fmysl, monofunkce", "area": "9393.0", "ecology": "Ne", "ownership": "Soukrom\u00e9"}, "geometry": {"type": "Point", "coordinates": [13.206822222222222, 49.55761111111111]}, "type": "Feature"}, {"properties": {"name": "Parn\u00ed ml\u00fdn \u0160atov rok 1866", "btype": "Are\u00e1l (plocha s budovami)", "prev_usage": "Pr\u016fmysl", "new_usage": "Cestovn\u00ed ruch", "area": "3000.0", "ecology": "Ne", "ownership": "Soukrom\u00e9"}, "geometry": {"type": "Point", "coordinates": [16.01607222222222, 48.792227777777775]}, "type": "Feature"}, {"properties": {"name": "Brownfield \u201eMlad\u00e1\u201c (b\u00fdval\u00fd vojensk\u00fd v\u00fdcvikov\u00fd prostor Mlad\u00e1) - lokality: A, B, C", "btype": "Are\u00e1l (plocha s budovami)", "prev_usage": "Vojensk\u00e9 are\u00e1ly, kas\u00e1rny, st\u0159elnice", "new_usage": "Pr\u016fmysl a podnik\u00e1n\u00ed (slu\u017eby, obchod, kancel\u00e1\u0159e)", "area": "6460000.0", "ecology": "Lze p\u0159edpokl\u00e1dat", "ownership": "Ve\u0159ejn\u00e9"}, "geometry": {"type": "Point", "coordinates": [14.935580555555555, 50.236075]}, "type": "Feature"}, {"properties": {"name": "B\u00fdval\u00e1 tkalcovna He\u0159manice nad Labem", "btype": "Are\u00e1l (plocha s budovami)", "prev_usage": "Pr\u016fmysl", "new_usage": "Pr\u016fmysl a podnik\u00e1n\u00ed (slu\u017eby, obchod, kancel\u00e1\u0159e)", "area": "2237.0", "ecology": "Ne", "ownership": "Soukrom\u00e9"}, "geometry": {"type": "Point", "coordinates": [15.92065, 50.37949722222222]}, "type": "Feature"}, {"properties": {"name": "Are\u00e1l Pa\u0161\u016fvka", "btype": "Are\u00e1l (plocha s budovami)", "prev_usage": "Zem\u011bd\u011blstv\u00ed", "new_usage": "Pr\u016fmysl a podnik\u00e1n\u00ed (slu\u017eby, obchod, kancel\u00e1\u0159e)", "area": "17403.0", "ecology": "Ne", "ownership": "Soukrom\u00e9"}, "geometry": {"type": "Point", "coordinates": [18.467327777777776, 49.787255555555554]}, "type": "Feature"}, {"properties": {"name": "Are\u00e1l Elitex Ji\u0159\u00edkov", "btype": "Are\u00e1l (plocha s budovami)", "prev_usage": "Pr\u016fmysl", "new_usage": "Pr\u016fmysl a podnik\u00e1n\u00ed (slu\u017eby, obchod, kancel\u00e1\u0159e)", "area": "32793.0", "ecology": "Lze p\u0159edpokl\u00e1dat", "ownership": "Soukrom\u00e9"}, "geometry": {"type": "Point", "coordinates": [14.577152777777778, 50.99946388888889]}, "type": "Feature"}, {"properties": {"name": "B\u00fdval\u00e9 St\u0159edn\u00ed odborn\u00e9 u\u010dili\u0161t\u011b \u0160t\u011bp\u00e1nov - Bezd\u011bkov", "btype": "Are\u00e1l (plocha s budovami)", "prev_usage": "Bydlen\u00ed", "new_usage": "Cestovn\u00ed ruch", "area": "3114.0", "ecology": null, "ownership": "Ve\u0159ejn\u00e9"}, "geometry": {"type": "Point", "coordinates": [15.739947222222222, 49.73479444444445]}, "type": "Feature"}, {"properties": {"name": "Herbenova farma Hustope\u010de", "btype": "Pozemek (plocha bez objekt\u016f)", "prev_usage": "Zem\u011bd\u011blstv\u00ed", "new_usage": "Jin\u00e9 (doprava, skl\u00e1dky, atd.)", "area": "82600.0", "ecology": null, "ownership": "Soukrom\u00e9"}, "geometry": {"type": "Point", "coordinates": [16.76009722222222, 48.92910833333333]}, "type": "Feature"}, {"properties": {"name": "V\u00fdrobn\u00ed are\u00e1l Kr\u00e1l\u016fv Dv\u016fr u Berouna", "btype": "Are\u00e1l (plocha s budovami)", "prev_usage": "Pr\u016fmysl", "new_usage": "Pr\u016fmysl, monofunkce", "area": "5700.0", "ecology": "Ne", "ownership": "Soukrom\u00e9"}, "geometry": {"type": "Point", "coordinates": [14.033227777777778, 49.94424722222222]}, "type": "Feature"}, {"properties": {"name": "Are\u00e1l V\u00e1clav, Orlov\u00e1", "btype": "Are\u00e1l (plocha s budovami)", "prev_usage": "Pr\u016fmysl", "new_usage": "Pr\u016fmysl, monofunkce", "area": "16270.0", "ecology": "Lze p\u0159edpokl\u00e1dat", "ownership": "Kombinovan\u00e9"}, "geometry": {"type": "Point", "coordinates": [18.406569444444443, 49.850297222222224]}, "type": "Feature"}, {"properties": {"name": "Skeletov\u00e1 budova/objekt P\u0159\u00ed\u0161ovice", "btype": "Objekt (jedna budova)", "prev_usage": "Pr\u016fmysl", "new_usage": "Pr\u016fmysl a podnik\u00e1n\u00ed (slu\u017eby, obchod, kancel\u00e1\u0159e)", "area": "4000.0", "ecology": "Ne", "ownership": "Soukrom\u00e9"}, "geometry": {"type": "Point", "coordinates": [15.072669444444443, 50.57407222222223]}, "type": "Feature"}, {"properties": {"name": "Are\u00e1l v centru Liberce", "btype": "Are\u00e1l (plocha s budovami)", "prev_usage": "Pr\u016fmysl", "new_usage": "Sm\u00ed\u0161en\u00e9 m\u011bstsk\u00e9 funkce (obchod, bydlen\u00ed,..)", "area": "10032.0", "ecology": "Ano", "ownership": "Soukrom\u00e9"}, "geometry": {"type": "Point", "coordinates": [15.051677777777778, 50.76363055555556]}, "type": "Feature"}, {"properties": {"name": "V\u00fdrobn\u00ed a skladovac\u00ed are\u00e1l s administrativn\u00ed \u010d\u00e1st\u00ed ve Vesel\u00ed nad Lu\u017enic\u00ed", "btype": "Are\u00e1l (plocha s budovami)", "prev_usage": "Zem\u011bd\u011blstv\u00ed", "new_usage": "Ob\u010dansk\u00e1 vybavenost", "area": "4670.0", "ecology": "Ne", "ownership": "Soukrom\u00e9"}, "geometry": {"type": "Point", "coordinates": [14.692635000000001, 49.189541388888884]}, "type": "Feature"}, {"properties": {"name": "D\u016fm U Zlat\u00e9 \u0161tiky, b\u00fdval\u00e1 Ryb\u00e1rna - Kol\u00edn", "btype": "Objekt (jedna budova)", "prev_usage": "Ob\u010dansk\u00e1 vybavenost (kulturn\u00ed domy, slu\u017eby, obchod, atd.)", "new_usage": "Sm\u00ed\u0161en\u00e9 m\u011bstsk\u00e9 funkce (obchod, bydlen\u00ed,..)", "area": "1122.0", "ecology": "Ne", "ownership": "Soukrom\u00e9"}, "geometry": {"type": "Point", "coordinates": [15.200441666666666, 50.02773055555556]}, "type": "Feature"}, {"properties": {"name": "V\u00fdrobn\u011b skladovac\u00ed are\u00e1l Jablonec nad Nisou", "btype": "Are\u00e1l (plocha s budovami)", "prev_usage": "Pr\u016fmysl", "new_usage": "Pr\u016fmysl a podnik\u00e1n\u00ed (slu\u017eby, obchod, kancel\u00e1\u0159e)", "area": "69092.0", "ecology": "Lze p\u0159edpokl\u00e1dat", "ownership": "Soukrom\u00e9"}, "geometry": {"type": "Point", "coordinates": [15.185902777777779, 50.716925]}, "type": "Feature"}, {"properties": {"name": "Are\u00e1l b\u00fdval\u00e9ho statku, s\u00fdpky, Valtice", "btype": "Are\u00e1l (plocha s budovami)", "prev_usage": "Zem\u011bd\u011blstv\u00ed", "new_usage": "Pr\u016fmysl a podnik\u00e1n\u00ed (slu\u017eby, obchod, kancel\u00e1\u0159e)", "area": "25253.0", "ecology": "Ne", "ownership": "Kombinovan\u00e9"}, "geometry": {"type": "Point", "coordinates": [16.76143611111111, 48.74203888888889]}, "type": "Feature"}, {"properties": {"name": "B\u00fdval\u00e1 cihelna v \u0158e\u010dkovic\u00edch, Brno", "btype": "Are\u00e1l (plocha s budovami)", "prev_usage": "Pr\u016fmysl", "new_usage": "Sm\u00ed\u0161en\u00e9 m\u011bstsk\u00e9 funkce (obchod, bydlen\u00ed,..)", "area": "26100.0", "ecology": "Ne", "ownership": "Kombinovan\u00e9"}, "geometry": {"type": "Point", "coordinates": [16.58165, 49.24086388888889]}, "type": "Feature"}, {"properties": {"name": "Budova \u0161koly \u010dp.134, Dobro\u010dkovice", "btype": "Objekt (jedna budova)", "prev_usage": "Ob\u010dansk\u00e1 vybavenost (kulturn\u00ed domy, slu\u017eby, obchod, atd.)", "new_usage": "Ob\u010dansk\u00e1 vybavenost", "area": "593.0", "ecology": "Ne", "ownership": "Ve\u0159ejn\u00e9"}, "geometry": {"type": "Point", "coordinates": [17.111375000000002, 49.15985833333333]}, "type": "Feature"}, {"properties": {"name": "Star\u00e1 cihelna, Ivanovice na Han\u00e9", "btype": "Are\u00e1l (plocha s budovami)", "prev_usage": "Jin\u00e9", "new_usage": "Ob\u010dansk\u00e1 vybavenost", "area": "19600.0", "ecology": "Ne", "ownership": "Soukrom\u00e9"}, "geometry": {"type": "Point", "coordinates": [17.09498611111111, 49.29805555555556]}, "type": "Feature"}, {"properties": {"name": "U cihelny, Hrab\u011btice", "btype": "Are\u00e1l (plocha s budovami)", "prev_usage": "Vojensk\u00e9 are\u00e1ly, kas\u00e1rny, st\u0159elnice", "new_usage": "Sm\u00ed\u0161en\u00e9 m\u011bstsk\u00e9 funkce (obchod, bydlen\u00ed,..)", "area": "41677.0", "ecology": "Ne", "ownership": "Soukrom\u00e9"}, "geometry": {"type": "Point", "coordinates": [16.397519444444445, 48.807761111111105]}, "type": "Feature"}, {"properties": {"name": "Statek, Ivanovice na Han\u00e9", "btype": "Are\u00e1l (plocha s budovami)", "prev_usage": "Zem\u011bd\u011blstv\u00ed", "new_usage": "Pr\u016fmysl a podnik\u00e1n\u00ed (slu\u017eby, obchod, kancel\u00e1\u0159e)", "area": "42062.0", "ecology": "Ne", "ownership": "Soukrom\u00e9"}, "geometry": {"type": "Point", "coordinates": [17.100533333333335, 49.30932222222222]}, "type": "Feature"}, {"properties": {"name": "Louck\u00fd kl\u00e1\u0161ter, Znojmo", "btype": "Are\u00e1l (plocha s budovami)", "prev_usage": "Vojensk\u00e9 are\u00e1ly, kas\u00e1rny, st\u0159elnice", "new_usage": "Ob\u010dansk\u00e1 vybavenost", "area": "60731.0", "ecology": "Ne", "ownership": "Kombinovan\u00e9"}, "geometry": {"type": "Point", "coordinates": [16.057647222222222, 48.84131666666667]}, "type": "Feature"}, {"properties": {"name": "Hotel Uran, Pec pod Sn\u011b\u017ekou", "btype": "Are\u00e1l (plocha s budovami)", "prev_usage": "Cestovn\u00ed ruch", "new_usage": "Cestovn\u00ed ruch", "area": "5000.0", "ecology": null, "ownership": "Soukrom\u00e9"}, "geometry": {"type": "Point", "coordinates": [15.737683055555555, 50.69974694444444]}, "type": "Feature"}, {"properties": {"name": "V\u00fdrobn\u00ed a skladovac\u00ed are\u00e1l v Opav\u011b", "btype": "Are\u00e1l (plocha s budovami)", "prev_usage": "Pr\u016fmysl", "new_usage": null, "area": "25325.0", "ecology": "Ne", "ownership": "Soukrom\u00e9"}, "geometry": {"type": "Point", "coordinates": [17.886944444444445, 49.94738888888889]}, "type": "Feature"}, {"properties": {"name": "N\u00edtkovice - Objekt hostince N\u00edtkovice 52", "btype": "Objekt (jedna budova)", "prev_usage": "Ob\u010dansk\u00e1 vybavenost (kulturn\u00ed domy, slu\u017eby, obchod, atd.)", "new_usage": "Pr\u016fmysl a podnik\u00e1n\u00ed (slu\u017eby, obchod, kancel\u00e1\u0159e)", "area": "496.0", "ecology": "Ne", "ownership": "Soukrom\u00e9"}, "geometry": {"type": "Point", "coordinates": [17.165855555555556, 49.20356944444445]}, "type": "Feature"}, {"properties": {"name": "Perla 01 \u00dast\u00ed nad Orlic\u00ed", "btype": "Are\u00e1l (plocha s budovami)", "prev_usage": "Pr\u016fmysl", "new_usage": "Pr\u016fmysl a podnik\u00e1n\u00ed (slu\u017eby, obchod, kancel\u00e1\u0159e)", "area": "29791.0", "ecology": null, "ownership": "Ve\u0159ejn\u00e9"}, "geometry": {"type": "Point", "coordinates": [16.396980555555555, 49.97451388888889]}, "type": "Feature"}, {"properties": {"name": "Cvi\u010di\u0161t\u011b A, Mikulov", "btype": "Are\u00e1l (plocha s budovami)", "prev_usage": "Vojensk\u00e9 are\u00e1ly, kas\u00e1rny, st\u0159elnice", "new_usage": "Ob\u010dansk\u00e1 vybavenost", "area": "87474.0", "ecology": "Lze p\u0159edpokl\u00e1dat", "ownership": "Ve\u0159ejn\u00e9"}, "geometry": {"type": "Point", "coordinates": [16.654077777777776, 48.82122777777778]}, "type": "Feature"}, {"properties": {"name": "Statek, \u017deravice", "btype": "Are\u00e1l (plocha s budovami)", "prev_usage": "Zem\u011bd\u011blstv\u00ed", "new_usage": "Sm\u00ed\u0161en\u00e1 zem\u011bd\u011blsk\u00e1 funkce", "area": "6019.0", "ecology": "Ne", "ownership": "Soukrom\u00e9"}, "geometry": {"type": "Point", "coordinates": [17.24136111111111, 49.024766666666665]}, "type": "Feature"}, {"properties": {"name": "Taba\u010dka, Hodon\u00edn", "btype": "Are\u00e1l (plocha s budovami)", "prev_usage": "Pr\u016fmysl", "new_usage": "Pr\u016fmysl a podnik\u00e1n\u00ed (slu\u017eby, obchod, kancel\u00e1\u0159e)", "area": "60837.0", "ecology": "Ne", "ownership": "Soukrom\u00e9"}, "geometry": {"type": "Point", "coordinates": [17.125355555555554, 48.84466666666667]}, "type": "Feature"}, {"properties": {"name": "B\u00fdval\u00e1 zelenina, \u017deletice", "btype": "Are\u00e1l (plocha s budovami)", "prev_usage": "Zem\u011bd\u011blstv\u00ed", "new_usage": "Pr\u016fmysl a podnik\u00e1n\u00ed (slu\u017eby, obchod, kancel\u00e1\u0159e)", "area": "4000.0", "ecology": "Ne", "ownership": "Kombinovan\u00e9"}, "geometry": {"type": "Point", "coordinates": [17.004955555555554, 49.01582777777778]}, "type": "Feature"}, {"properties": {"name": "V\u00fdrobn\u00ed prostory v Tov\u00e1rn\u00ed ulici 800 m2, Hole\u0161ov", "btype": "Are\u00e1l (plocha s budovami)", "prev_usage": "Pr\u016fmysl", "new_usage": null, "area": "800.0", "ecology": null, "ownership": "Soukrom\u00e9"}, "geometry": {"type": "Point", "coordinates": [17.568769444444445, 49.32466388888889]}, "type": "Feature"}, {"properties": {"name": "MTC Kol\u00edn, s.r.o. - b\u00fdval\u00e9 \u010cKD", "btype": "Are\u00e1l (plocha s budovami)", "prev_usage": "Pr\u016fmysl", "new_usage": "Pr\u016fmysl, monofunkce", "area": "55000.0", "ecology": "Ne", "ownership": "Soukrom\u00e9"}, "geometry": {"type": "Point", "coordinates": [15.21551111111111, 50.04104722222222]}, "type": "Feature"}, {"properties": {"name": "V\u00fdroba, sklad, autodoprava", "btype": "Are\u00e1l (plocha s budovami)", "prev_usage": "Doprava", "new_usage": "Pr\u016fmysl a podnik\u00e1n\u00ed (slu\u017eby, obchod, kancel\u00e1\u0159e)", "area": "8863.0", "ecology": "Ne", "ownership": "Soukrom\u00e9"}, "geometry": {"type": "Point", "coordinates": [12.402988888888888, 50.094908333333336]}, "type": "Feature"}, {"properties": {"name": "Z\u00e1mek B\u0159eclav", "btype": "Objekt (jedna budova)", "prev_usage": "Cestovn\u00ed ruch", "new_usage": "Cestovn\u00ed ruch", "area": "26824.0", "ecology": "Ne", "ownership": "Ve\u0159ejn\u00e9"}, "geometry": {"type": "Point", "coordinates": [16.87625, 48.76023333333333]}, "type": "Feature"}, {"properties": {"name": "Are\u00e1l Doln\u00ed Maxov", "btype": "Are\u00e1l (plocha s budovami)", "prev_usage": "Pr\u016fmysl", "new_usage": "Pr\u016fmysl a podnik\u00e1n\u00ed (slu\u017eby, obchod, kancel\u00e1\u0159e)", "area": "6806.0", "ecology": "Ne", "ownership": "Soukrom\u00e9"}, "geometry": {"type": "Point", "coordinates": [15.235544444444443, 50.78004444444444]}, "type": "Feature"}, {"properties": {"name": "Are\u00e1l s budovami, Horosedly", "btype": "Are\u00e1l (plocha s budovami)", "prev_usage": "Zem\u011bd\u011blstv\u00ed", "new_usage": "Pr\u016fmysl a podnik\u00e1n\u00ed (slu\u017eby, obchod, kancel\u00e1\u0159e)", "area": "18451.0", "ecology": "Ne", "ownership": "Soukrom\u00e9"}, "geometry": {"type": "Point", "coordinates": [14.072836666666666, 49.527548333333336]}, "type": "Feature"}, {"properties": {"name": "Pr\u016fmyslov\u00fd are\u00e1l Slavi\u010d\u00edn, V\u00fdrobn\u00ed hala B 8", "btype": "Are\u00e1l (plocha s budovami)", "prev_usage": "Pr\u016fmysl", "new_usage": "Pr\u016fmysl a podnik\u00e1n\u00ed (slu\u017eby, obchod, kancel\u00e1\u0159e)", "area": "2594.0", "ecology": "Ne", "ownership": "Soukrom\u00e9"}, "geometry": {"type": "Point", "coordinates": [17.90603611111111, 49.104036111111114]}, "type": "Feature"}, {"properties": {"name": "SEBA T - z\u00e1vod 07, Smr\u017eovka", "btype": "Are\u00e1l (plocha s budovami)", "prev_usage": "Pr\u016fmysl", "new_usage": "Pr\u016fmysl a podnik\u00e1n\u00ed (slu\u017eby, obchod, kancel\u00e1\u0159e)", "area": "30000.0", "ecology": "Ne", "ownership": "Soukrom\u00e9"}, "geometry": {"type": "Point", "coordinates": [15.273390555555556, 50.738078333333334]}, "type": "Feature"}, {"properties": {"name": "Are\u00e1l OMGD, s. r. o., Kazn\u011bjov", "btype": "Are\u00e1l (plocha s budovami)", "prev_usage": "Pr\u016fmysl", "new_usage": "Pr\u016fmysl a podnik\u00e1n\u00ed (slu\u017eby, obchod, kancel\u00e1\u0159e)", "area": "415118.0", "ecology": "Ano", "ownership": "Soukrom\u00e9"}, "geometry": {"type": "Point", "coordinates": [13.372326944444445, 49.887456666666665]}, "type": "Feature"}, {"properties": {"name": "Z\u00e1mek Je\u0159ice a b\u00fdval\u00e9 zem\u011bd\u011blsk\u00e9 budovy", "btype": "Are\u00e1l (plocha s budovami)", "prev_usage": "Zem\u011bd\u011blstv\u00ed", "new_usage": "Cestovn\u00ed ruch", "area": "500000.0", "ecology": "Ne", "ownership": "Soukrom\u00e9"}, "geometry": {"type": "Point", "coordinates": [15.68336, 50.342398333333335]}, "type": "Feature"}, {"properties": {"name": "Pr\u016fmyslov\u00fd are\u00e1l Slavi\u010d\u00edn, Hala B 65", "btype": "Are\u00e1l (plocha s budovami)", "prev_usage": "Pr\u016fmysl", "new_usage": "Pr\u016fmysl a podnik\u00e1n\u00ed (slu\u017eby, obchod, kancel\u00e1\u0159e)", "area": "462.0", "ecology": "Ne", "ownership": "Soukrom\u00e9"}, "geometry": {"type": "Point", "coordinates": [17.86926111111111, 49.082926944444445]}, "type": "Feature"}, {"properties": {"name": "B\u00fdval\u00e9 p\u0159ekladi\u0161te, Jind\u0159ich\u016fv Hradec", "btype": "Pozemek (plocha bez objekt\u016f)", "prev_usage": "Doprava", "new_usage": "Jin\u00e9 (doprava, skl\u00e1dky, atd.)", "area": "24444.0", "ecology": "Ne", "ownership": "Soukrom\u00e9"}, "geometry": {"type": "Point", "coordinates": [14.991644444444443, 49.15691944444444]}, "type": "Feature"}, {"properties": {"name": "DORIS - b\u00fdval\u00e1 textiln\u00ed tov\u00e1rna - B\u0159ezov\u00e1 nad Svitavou", "btype": "Are\u00e1l (plocha s budovami)", "prev_usage": "Pr\u016fmysl", "new_usage": "Sm\u00ed\u0161en\u00e9 m\u011bstsk\u00e9 funkce (obchod, bydlen\u00ed,..)", "area": "3768.0", "ecology": "Ne", "ownership": "Soukrom\u00e9"}, "geometry": {"type": "Point", "coordinates": [16.518041666666665, 49.64983888888889]}, "type": "Feature"}, {"properties": {"name": "Fruta Popel\u00edn", "btype": "Are\u00e1l (plocha s budovami)", "prev_usage": "Pr\u016fmysl", "new_usage": "Pr\u016fmysl, monofunkce", "area": "7057.0", "ecology": null, "ownership": "Soukrom\u00e9"}, "geometry": {"type": "Point", "coordinates": [15.178630555555555, 49.21201111111112]}, "type": "Feature"}, {"properties": {"name": "BETA, \u010cernilov", "btype": "Are\u00e1l (plocha s budovami)", "prev_usage": "Zem\u011bd\u011blstv\u00ed", "new_usage": "Pr\u016fmysl a podnik\u00e1n\u00ed (slu\u017eby, obchod, kancel\u00e1\u0159e)", "area": "97291.0", "ecology": "Ne", "ownership": "Soukrom\u00e9"}, "geometry": {"type": "Point", "coordinates": [15.942211111111112, 50.26576527777778]}, "type": "Feature"}, {"properties": {"name": "Hala MILCOM a.s. - Dv\u016fr Kr\u00e1lov\u00e9 nad Labem", "btype": "Objekt (jedna budova)", "prev_usage": "Pr\u016fmysl", "new_usage": "Pr\u016fmysl, monofunkce", "area": "2120.0", "ecology": "Ne", "ownership": "Soukrom\u00e9"}, "geometry": {"type": "Point", "coordinates": [15.824069444444444, 50.43182777777778]}, "type": "Feature"}, {"properties": {"name": "B\u00fdval\u00fd velkokapacitn\u00ed krav\u00edn Nov\u00e1 Ves I u Kol\u00edna", "btype": "Are\u00e1l (plocha s budovami)", "prev_usage": "Zem\u011bd\u011blstv\u00ed", "new_usage": "Pr\u016fmysl a podnik\u00e1n\u00ed (slu\u017eby, obchod, kancel\u00e1\u0159e)", "area": "12500.0", "ecology": "Ne", "ownership": "Soukrom\u00e9"}, "geometry": {"type": "Point", "coordinates": [15.148375, 50.05114722222222]}, "type": "Feature"}, {"properties": {"name": "Are\u00e1l b\u00fdval\u00e9 ml\u00e9k\u00e1rny a b\u00fdval\u00e9ho pivovaru \u017dichovice", "btype": "Are\u00e1l (plocha s budovami)", "prev_usage": "Pr\u016fmysl", "new_usage": "Cestovn\u00ed ruch", "area": "16033.0", "ecology": "Ne", "ownership": "Soukrom\u00e9"}, "geometry": {"type": "Point", "coordinates": [13.625394444444446, 49.267158333333334]}, "type": "Feature"}, {"properties": {"name": "M\u00edch\u00e1rna Budi\u0161ov", "btype": "Are\u00e1l (plocha s budovami)", "prev_usage": "Zem\u011bd\u011blstv\u00ed", "new_usage": "Sm\u00ed\u0161en\u00e9 m\u011bstsk\u00e9 funkce (obchod, bydlen\u00ed,..)", "area": "5500.0", "ecology": "Ne", "ownership": "Soukrom\u00e9"}, "geometry": {"type": "Point", "coordinates": [16.00904722222222, 49.273583333333335]}, "type": "Feature"}, {"properties": {"name": "Pr\u016fmyslov\u00fd are\u00e1l Best-Business,a.s.", "btype": "Are\u00e1l (plocha s budovami)", "prev_usage": "Pr\u016fmysl", "new_usage": "Pr\u016fmysl a podnik\u00e1n\u00ed (slu\u017eby, obchod, kancel\u00e1\u0159e)", "area": "11000.0", "ecology": "Ne", "ownership": "Soukrom\u00e9"}, "geometry": {"type": "Point", "coordinates": [16.518752777777777, 49.49146666666667]}, "type": "Feature"}, {"properties": {"name": "D\u011b\u010d\u00edn B\u0159ezov\u00e1 ul.", "btype": "Are\u00e1l (plocha s budovami)", "prev_usage": "Pr\u016fmysl", "new_usage": "Pr\u016fmysl a podnik\u00e1n\u00ed (slu\u017eby, obchod, kancel\u00e1\u0159e)", "area": "5500.0", "ecology": null, "ownership": "Soukrom\u00e9"}, "geometry": {"type": "Point", "coordinates": [14.230033333333333, 50.76988333333333]}, "type": "Feature"}, {"properties": {"name": "Skladov\u00fd a v\u00fdrobn\u00ed are\u00e1l H\u00e1j ve Slezsku - Smolkov", "btype": "Are\u00e1l (plocha s budovami)", "prev_usage": "Pr\u016fmysl", "new_usage": "Sm\u00ed\u0161en\u00e9 m\u011bstsk\u00e9 funkce (obchod, bydlen\u00ed,..)", "area": "2661.0", "ecology": "Ne", "ownership": "Soukrom\u00e9"}, "geometry": {"type": "Point", "coordinates": [18.088627777777777, 49.89986111111111]}, "type": "Feature"}, {"properties": {"name": "St\u00e1vaj\u00edc\u00ed skl\u00e1dka stavebn\u00edch odpad\u016f a sut\u00ed v Hradci Kr\u00e1lov\u00e9, Kuklen\u00e1ch u d\u00e1lni\u010d\u00edho p\u0159ivad\u011b\u010de", "btype": "Pozemek (plocha bez objekt\u016f)", "prev_usage": "Jin\u00e9", "new_usage": "Pr\u016fmysl a podnik\u00e1n\u00ed (slu\u017eby, obchod, kancel\u00e1\u0159e)", "area": "35000.0", "ecology": "Ne", "ownership": "Soukrom\u00e9"}, "geometry": {"type": "Point", "coordinates": [15.792733333333333, 50.19753055555555]}, "type": "Feature"}, {"properties": {"name": "B\u00fdval\u00e1 provozovna KRAS, Byst\u0159ice nad Pern\u0161tejnem", "btype": "Are\u00e1l (plocha s budovami)", "prev_usage": "Pr\u016fmysl", "new_usage": "Pr\u016fmysl a podnik\u00e1n\u00ed (slu\u017eby, obchod, kancel\u00e1\u0159e)", "area": "5675.0", "ecology": "Ne", "ownership": "Soukrom\u00e9"}, "geometry": {"type": "Point", "coordinates": [16.2706475, 49.52150611111111]}, "type": "Feature"}, {"properties": {"name": "objekt b\u00fdval\u00e9ho kina", "btype": "Objekt (jedna budova)", "prev_usage": "Ob\u010dansk\u00e1 vybavenost (kulturn\u00ed domy, slu\u017eby, obchod, atd.)", "new_usage": "Ob\u010dansk\u00e1 vybavenost", "area": "2044.0", "ecology": "Ne", "ownership": "Ve\u0159ejn\u00e9"}, "geometry": {"type": "Point", "coordinates": [14.16845, 49.783138888888885]}, "type": "Feature"}, {"properties": {"name": "Centepoint Chomutov", "btype": "Are\u00e1l (plocha s budovami)", "prev_usage": "Ob\u010dansk\u00e1 vybavenost (kulturn\u00ed domy, slu\u017eby, obchod, atd.)", "new_usage": null, "area": "10350.0", "ecology": null, "ownership": "Soukrom\u00e9"}, "geometry": {"type": "Point", "coordinates": [13.423366666666666, 50.45706944444445]}, "type": "Feature"}, {"properties": {"name": "Velk\u00e1 p\u011bchotn\u00ed kas\u00e1rna, Terez\u00edn", "btype": "Are\u00e1l (plocha s budovami)", "prev_usage": "Vojensk\u00e9 are\u00e1ly, kas\u00e1rny, st\u0159elnice", "new_usage": "Sm\u00ed\u0161en\u00e9 m\u011bstsk\u00e9 funkce (obchod, bydlen\u00ed,..)", "area": "7642.0", "ecology": "Ne", "ownership": "Ve\u0159ejn\u00e9"}, "geometry": {"type": "Point", "coordinates": [14.15041388888889, 50.51345777777778]}, "type": "Feature"}, {"properties": {"name": "Obchodn\u00ed Z\u00f3na Chomutov - Nov\u00e9 Spo\u0159ice", "btype": "Are\u00e1l (plocha s budovami)", "prev_usage": "Ob\u010dansk\u00e1 vybavenost (kulturn\u00ed domy, slu\u017eby, obchod, atd.)", "new_usage": "Pr\u016fmysl a podnik\u00e1n\u00ed (slu\u017eby, obchod, kancel\u00e1\u0159e)", "area": "8264.0", "ecology": "Ne", "ownership": "Soukrom\u00e9"}, "geometry": {"type": "Point", "coordinates": [13.380894444444445, 50.458783333333336]}, "type": "Feature"}, {"properties": {"name": "Zem\u011bd\u011blsk\u00fd are\u00e1l - Poho\u0159elice", "btype": "Are\u00e1l (plocha s budovami)", "prev_usage": "Zem\u011bd\u011blstv\u00ed", "new_usage": null, "area": "66020.0", "ecology": null, "ownership": "Soukrom\u00e9"}, "geometry": {"type": "Point", "coordinates": [16.51508611111111, 48.97205277777778]}, "type": "Feature"}, {"properties": {"name": "Intendan\u010dn\u00ed sklad, Terez\u00edn", "btype": "Are\u00e1l (plocha s budovami)", "prev_usage": "Vojensk\u00e9 are\u00e1ly, kas\u00e1rny, st\u0159elnice", "new_usage": "Pr\u016fmysl, monofunkce", "area": "7768.0", "ecology": "Ne", "ownership": "Ve\u0159ejn\u00e9"}, "geometry": {"type": "Point", "coordinates": [14.151208055555555, 50.508116944444446]}, "type": "Feature"}, {"properties": {"name": "Pr\u016fmyslov\u00fd are\u00e1l Slavi\u010d\u00edn, Hala B 98", "btype": "Are\u00e1l (plocha s budovami)", "prev_usage": "Pr\u016fmysl", "new_usage": "Pr\u016fmysl a podnik\u00e1n\u00ed (slu\u017eby, obchod, kancel\u00e1\u0159e)", "area": "199.0", "ecology": "Ne", "ownership": "Soukrom\u00e9"}, "geometry": {"type": "Point", "coordinates": [17.875244444444444, 49.084073611111116]}, "type": "Feature"}, {"properties": {"name": "Pr\u016fmyslov\u00fd are\u00e1l Slavi\u010d\u00edn, V\u00fdrobn\u00ed hala C2", "btype": "Are\u00e1l (plocha s budovami)", "prev_usage": "Pr\u016fmysl", "new_usage": "Pr\u016fmysl a podnik\u00e1n\u00ed (slu\u017eby, obchod, kancel\u00e1\u0159e)", "area": "1314.0", "ecology": "Ne", "ownership": "Soukrom\u00e9"}, "geometry": {"type": "Point", "coordinates": [17.90466111111111, 49.096113888888894]}, "type": "Feature"}, {"properties": {"name": "Pr\u016fmyslov\u00fd are\u00e1l Slavi\u010d\u00edn, Hala B 97", "btype": "Are\u00e1l (plocha s budovami)", "prev_usage": "Pr\u016fmysl", "new_usage": "Pr\u016fmysl a podnik\u00e1n\u00ed (slu\u017eby, obchod, kancel\u00e1\u0159e)", "area": "524.0", "ecology": "Ne", "ownership": "Soukrom\u00e9"}, "geometry": {"type": "Point", "coordinates": [17.91240833333333, 49.10297777777778]}, "type": "Feature"}, {"properties": {"name": "V\u00fdrobn\u00ed are\u00e1l - Viaflex Smr\u017eovka", "btype": "Are\u00e1l (plocha s budovami)", "prev_usage": "Pr\u016fmysl", "new_usage": "Pr\u016fmysl a podnik\u00e1n\u00ed (slu\u017eby, obchod, kancel\u00e1\u0159e)", "area": "7700.0", "ecology": "Lze p\u0159edpokl\u00e1dat", "ownership": "Ve\u0159ejn\u00e9"}, "geometry": {"type": "Point", "coordinates": [15.247063888888889, 50.739025]}, "type": "Feature"}, {"properties": {"name": "B\u00edl\u00fd Potok - Staven\u00ed u silnice", "btype": "Objekt (jedna budova)", "prev_usage": "Bydlen\u00ed", "new_usage": "Bydlen\u00ed", "area": "504.0", "ecology": null, "ownership": "Soukrom\u00e9"}, "geometry": {"type": "Point", "coordinates": [15.214525, 50.87504444444445]}, "type": "Feature"}, {"properties": {"name": "P\u0159edl\u00e1nce - stodoly", "btype": "Are\u00e1l (plocha s budovami)", "prev_usage": "Zem\u011bd\u011blstv\u00ed", "new_usage": "Zem\u011bd\u011blstv\u00ed", "area": "2799.0", "ecology": null, "ownership": "Soukrom\u00e9"}, "geometry": {"type": "Point", "coordinates": [15.037230555555556, 50.97646944444445]}, "type": "Feature"}, {"properties": {"name": "Pr\u016fmyslov\u00fd are\u00e1l Slavi\u010d\u00edn, V\u00fdrobn\u00ed hala C 7", "btype": "Are\u00e1l (plocha s budovami)", "prev_usage": "Pr\u016fmysl", "new_usage": "Pr\u016fmysl a podnik\u00e1n\u00ed (slu\u017eby, obchod, kancel\u00e1\u0159e)", "area": "440.0", "ecology": "Ne", "ownership": "Soukrom\u00e9"}, "geometry": {"type": "Point", "coordinates": [17.908955555555554, 49.09831666666667]}, "type": "Feature"}, {"properties": {"name": "Pr\u016fmyslov\u00fd are\u00e1l Slavi\u010d\u00edn, V\u00fdrobn\u00ed hala B 35", "btype": "Are\u00e1l (plocha s budovami)", "prev_usage": "Pr\u016fmysl", "new_usage": "Pr\u016fmysl a podnik\u00e1n\u00ed (slu\u017eby, obchod, kancel\u00e1\u0159e)", "area": "261.0", "ecology": "Ne", "ownership": "Soukrom\u00e9"}, "geometry": {"type": "Point", "coordinates": [17.90382222222222, 49.10763888888889]}, "type": "Feature"}, {"properties": {"name": "Pr\u016fmyslov\u00fd are\u00e1l Slavi\u010d\u00edn, V\u00fdrobn\u00ed hala C 40", "btype": "Are\u00e1l (plocha s budovami)", "prev_usage": "Pr\u016fmysl", "new_usage": "Pr\u016fmysl a podnik\u00e1n\u00ed (slu\u017eby, obchod, kancel\u00e1\u0159e)", "area": "993.0", "ecology": "Ne", "ownership": "Soukrom\u00e9"}, "geometry": {"type": "Point", "coordinates": [17.903736111111108, 49.10800277777778]}, "type": "Feature"}, {"properties": {"name": "Pr\u016fmyslov\u00fd are\u00e1l Slavi\u010d\u00edn, V\u00fdrobn\u00ed hala B 126", "btype": "Are\u00e1l (plocha s budovami)", "prev_usage": "Pr\u016fmysl", "new_usage": "Pr\u016fmysl a podnik\u00e1n\u00ed (slu\u017eby, obchod, kancel\u00e1\u0159e)", "area": "376.0", "ecology": "Ne", "ownership": "Soukrom\u00e9"}, "geometry": {"type": "Point", "coordinates": [17.901833333333332, 49.11085833333333]}, "type": "Feature"}, {"properties": {"name": "Pr\u016fmyslov\u00fd are\u00e1l Slavi\u010d\u00edn, V\u00fdrobn\u00ed hala B 26", "btype": "Are\u00e1l (plocha s budovami)", "prev_usage": "Pr\u016fmysl", "new_usage": "Pr\u016fmysl a podnik\u00e1n\u00ed (slu\u017eby, obchod, kancel\u00e1\u0159e)", "area": "267.0", "ecology": "Ne", "ownership": "Soukrom\u00e9"}, "geometry": {"type": "Point", "coordinates": [17.901588888888888, 49.11071666666667]}, "type": "Feature"}, {"properties": {"name": "Pr\u016fmyslov\u00fd are\u00e1l Slavi\u010d\u00edn, V\u00fdrobn\u00ed hala B 43", "btype": "Are\u00e1l (plocha s budovami)", "prev_usage": "Pr\u016fmysl", "new_usage": "Pr\u016fmysl a podnik\u00e1n\u00ed (slu\u017eby, obchod, kancel\u00e1\u0159e)", "area": "172.0", "ecology": "Ne", "ownership": "Soukrom\u00e9"}, "geometry": {"type": "Point", "coordinates": [17.90094722222222, 49.110825]}, "type": "Feature"}, {"properties": {"name": "Pr\u016fmyslov\u00fd are\u00e1l Slavi\u010d\u00edn, Hala C 12", "btype": "Are\u00e1l (plocha s budovami)", "prev_usage": "Pr\u016fmysl", "new_usage": "Pr\u016fmysl a podnik\u00e1n\u00ed (slu\u017eby, obchod, kancel\u00e1\u0159e)", "area": "371.0", "ecology": "Ne", "ownership": "Soukrom\u00e9"}, "geometry": {"type": "Point", "coordinates": [17.909494444444444, 49.098850000000006]}, "type": "Feature"}, {"properties": {"name": "Pr\u016fmyslov\u00fd are\u00e1l Slavi\u010d\u00edn, V\u00fdrobn\u00ed hala B 31", "btype": "Are\u00e1l (plocha s budovami)", "prev_usage": "Pr\u016fmysl", "new_usage": "Pr\u016fmysl a podnik\u00e1n\u00ed (slu\u017eby, obchod, kancel\u00e1\u0159e)", "area": "262.0", "ecology": "Ne", "ownership": "Soukrom\u00e9"}, "geometry": {"type": "Point", "coordinates": [17.912425, 49.10256388888889]}, "type": "Feature"}, {"properties": {"name": "Pr\u016fmyslov\u00fd are\u00e1l Slavi\u010d\u00edn, Hala B 95", "btype": "Are\u00e1l (plocha s budovami)", "prev_usage": "Pr\u016fmysl", "new_usage": "Pr\u016fmysl a podnik\u00e1n\u00ed (slu\u017eby, obchod, kancel\u00e1\u0159e)", "area": "511.0", "ecology": "Ne", "ownership": "Soukrom\u00e9"}, "geometry": {"type": "Point", "coordinates": [17.904002777777777, 49.107255555555554]}, "type": "Feature"}, {"properties": {"name": "Pr\u016fmyslov\u00fd are\u00e1l Slavi\u010d\u00edn, V\u00fdrobn\u00ed hala B88", "btype": "Are\u00e1l (plocha s budovami)", "prev_usage": "Pr\u016fmysl", "new_usage": "Pr\u016fmysl a podnik\u00e1n\u00ed (slu\u017eby, obchod, kancel\u00e1\u0159e)", "area": "598.0", "ecology": "Ne", "ownership": "Soukrom\u00e9"}, "geometry": {"type": "Point", "coordinates": [17.911388888888887, 49.102355555555555]}, "type": "Feature"}, {"properties": {"name": "Cihelna, Sokolnice", "btype": "Are\u00e1l (plocha s budovami)", "prev_usage": "Pr\u016fmysl", "new_usage": "Pr\u016fmysl a podnik\u00e1n\u00ed (slu\u017eby, obchod, kancel\u00e1\u0159e)", "area": "15195.0", "ecology": "Ne", "ownership": "Soukrom\u00e9"}, "geometry": {"type": "Point", "coordinates": [16.73341, 49.11562333333333]}, "type": "Feature"}, {"properties": {"name": "Radostick\u00fd ml\u00fdn", "btype": "Objekt (jedna budova)", "prev_usage": "Jin\u00e9", "new_usage": null, "area": "388.0", "ecology": null, "ownership": "Soukrom\u00e9"}, "geometry": {"type": "Point", "coordinates": [16.476641666666666, 49.142266666666664]}, "type": "Feature"}, {"properties": {"name": "Are\u00e1l u d\u00e1lnice, Ostrava-Svinov", "btype": "Are\u00e1l (plocha s budovami)", "prev_usage": "Pr\u016fmysl", "new_usage": "Pr\u016fmysl a podnik\u00e1n\u00ed (slu\u017eby, obchod, kancel\u00e1\u0159e)", "area": "46791.0", "ecology": "Ne", "ownership": "Soukrom\u00e9"}, "geometry": {"type": "Point", "coordinates": [18.21124777777778, 49.814052777777775]}, "type": "Feature"}, {"properties": {"name": "Are\u00e1l soci\u00e1ln\u00ed p\u00e9\u010de, Ostravice", "btype": "Are\u00e1l (plocha s budovami)", "prev_usage": "Ob\u010dansk\u00e1 vybavenost (kulturn\u00ed domy, slu\u017eby, obchod, atd.)", "new_usage": "Bydlen\u00ed", "area": "52000.0", "ecology": "Ne", "ownership": "Soukrom\u00e9"}, "geometry": {"type": "Point", "coordinates": [18.409763888888886, 49.52099444444444]}, "type": "Feature"}, {"properties": {"name": "Seba T 05", "btype": "Are\u00e1l (plocha s budovami)", "prev_usage": "Pr\u016fmysl", "new_usage": "Pr\u016fmysl, monofunkce", "area": "27593.0", "ecology": "Lze p\u0159edpokl\u00e1dat", "ownership": "Soukrom\u00e9"}, "geometry": {"type": "Point", "coordinates": [15.326072222222223, 50.693875]}, "type": "Feature"}, {"properties": {"name": "Objekt, V\u00e1clavsk\u00e1 ul.", "btype": "Are\u00e1l (plocha s budovami)", "prev_usage": "Pr\u016fmysl", "new_usage": "Pr\u016fmysl a podnik\u00e1n\u00ed (slu\u017eby, obchod, kancel\u00e1\u0159e)", "area": "20429.0", "ecology": null, "ownership": "Ve\u0159ejn\u00e9"}, "geometry": {"type": "Point", "coordinates": [14.84336388888889, 50.8532]}, "type": "Feature"}, {"properties": {"name": "IS\u0160 Lesnick\u00e1", "btype": "Are\u00e1l (plocha s budovami)", "prev_usage": "Jin\u00e9", "new_usage": "Ob\u010dansk\u00e1 vybavenost", "area": "1140.0", "ecology": null, "ownership": "Ve\u0159ejn\u00e9"}, "geometry": {"type": "Point", "coordinates": [15.413811111111112, 50.776313888888886]}, "type": "Feature"}, {"properties": {"name": "Pila, Moravsk\u00e1 Nov\u00e1 Ves", "btype": "Are\u00e1l (plocha s budovami)", "prev_usage": "T\u011b\u017eba surovin", "new_usage": null, "area": "55077.0", "ecology": null, "ownership": "Soukrom\u00e9"}, "geometry": {"type": "Point", "coordinates": [17.037672222222223, 48.80859722222222]}, "type": "Feature"}, {"properties": {"name": "Semily - \u0158eky", "btype": "Are\u00e1l (plocha s budovami)", "prev_usage": "Pr\u016fmysl", "new_usage": "Pr\u016fmysl a podnik\u00e1n\u00ed (slu\u017eby, obchod, kancel\u00e1\u0159e)", "area": "40000.0", "ecology": null, "ownership": "Soukrom\u00e9"}, "geometry": {"type": "Point", "coordinates": [15.319705555555556, 50.61300555555556]}, "type": "Feature"}, {"properties": {"name": "Horn\u00ed \u0161kola", "btype": "Are\u00e1l (plocha s budovami)", "prev_usage": "Ob\u010dansk\u00e1 vybavenost (kulturn\u00ed domy, slu\u017eby, obchod, atd.)", "new_usage": "Bydlen\u00ed", "area": "5914.0", "ecology": null, "ownership": "Ve\u0159ejn\u00e9"}, "geometry": {"type": "Point", "coordinates": [15.469038888888889, 50.73150833333334]}, "type": "Feature"}, {"properties": {"name": "Multifunk\u010dn\u00ed budova, Brtnice", "btype": "Objekt (jedna budova)", "prev_usage": "Ob\u010dansk\u00e1 vybavenost (kulturn\u00ed domy, slu\u017eby, obchod, atd.)", "new_usage": null, "area": "1118.0", "ecology": null, "ownership": "Soukrom\u00e9"}, "geometry": {"type": "Point", "coordinates": [15.679372222222222, 49.30464166666666]}, "type": "Feature"}, {"properties": {"name": "Masarykova kas\u00e1rna, Pardubice", "btype": "Are\u00e1l (plocha s budovami)", "prev_usage": "Vojensk\u00e9 are\u00e1ly, kas\u00e1rny, st\u0159elnice", "new_usage": null, "area": "97400.0", "ecology": null, "ownership": "Ve\u0159ejn\u00e9"}, "geometry": {"type": "Point", "coordinates": [15.775447222222223, 50.02118055555555]}, "type": "Feature"}, {"properties": {"name": "Kas\u00e1rna P\u00edstov", "btype": "Are\u00e1l (plocha s budovami)", "prev_usage": "Vojensk\u00e9 are\u00e1ly, kas\u00e1rny, st\u0159elnice", "new_usage": null, "area": "74503.0", "ecology": null, "ownership": "Ve\u0159ejn\u00e9"}, "geometry": {"type": "Point", "coordinates": [15.556861111111111, 49.36955833333333]}, "type": "Feature"}, {"properties": {"name": "V\u00fdrobn\u00ed are\u00e1l u kostela - V\u00e1no\u010dn\u00ed ozdoby, Dv\u016fr Kr\u00e1lov\u00e9 nad labem", "btype": "Are\u00e1l (plocha s budovami)", "prev_usage": "Pr\u016fmysl", "new_usage": null, "area": "5639.0", "ecology": null, "ownership": "Soukrom\u00e9"}, "geometry": {"type": "Point", "coordinates": [15.814461111111111, 50.43420277777778]}, "type": "Feature"}, {"properties": {"name": "Kas\u00e1rna ve Fr\u00fddeck\u00e9m lese, Fr\u00fddek-M\u00edstek", "btype": "Are\u00e1l (plocha s budovami)", "prev_usage": "Vojensk\u00e9 are\u00e1ly, kas\u00e1rny, st\u0159elnice", "new_usage": null, "area": "90908.0", "ecology": null, "ownership": "Ve\u0159ejn\u00e9"}, "geometry": {"type": "Point", "coordinates": [18.398994444444444, 49.68966388888889]}, "type": "Feature"}, {"properties": {"name": "Limpu\u0161e, Sedlec u Vraclavi", "btype": "Pozemek (plocha bez objekt\u016f)", "prev_usage": "Vojensk\u00e9 are\u00e1ly, kas\u00e1rny, st\u0159elnice", "new_usage": "Ob\u010dansk\u00e1 vybavenost", "area": "17346.0", "ecology": "Lze p\u0159edpokl\u00e1dat", "ownership": "Ve\u0159ejn\u00e9"}, "geometry": {"type": "Point", "coordinates": [16.11394166666667, 49.93764722222222]}, "type": "Feature"}, {"properties": {"name": "B\u00fdval\u00e1 sladovna, Lan\u0161kroun", "btype": "Objekt (jedna budova)", "prev_usage": "Pr\u016fmysl", "new_usage": null, "area": "812.0", "ecology": null, "ownership": "Ve\u0159ejn\u00e9"}, "geometry": {"type": "Point", "coordinates": [16.608980555555558, 49.912863888888886]}, "type": "Feature"}, {"properties": {"name": "Kas\u00e1rna (monoblok), Star\u00e1 Ves nad Ond\u0159ejnic\u00ed", "btype": "Are\u00e1l (plocha s budovami)", "prev_usage": "Vojensk\u00e9 are\u00e1ly, kas\u00e1rny, st\u0159elnice", "new_usage": null, "area": "3800.0", "ecology": "Ne", "ownership": "Ve\u0159ejn\u00e9"}, "geometry": {"type": "Point", "coordinates": [18.185558333333333, 49.724297222222226]}, "type": "Feature"}, {"properties": {"name": "B\u00fdval\u00e1 mate\u0159sk\u00e1 \u0161kola, Osoblaha", "btype": "Objekt (jedna budova)", "prev_usage": "Ob\u010dansk\u00e1 vybavenost (kulturn\u00ed domy, slu\u017eby, obchod, atd.)", "new_usage": "Sm\u00ed\u0161en\u00e9 m\u011bstsk\u00e9 funkce (obchod, bydlen\u00ed,..)", "area": "3632.0", "ecology": "Ne", "ownership": "Ve\u0159ejn\u00e9"}, "geometry": {"type": "Point", "coordinates": [17.71595, 50.27462222222222]}, "type": "Feature"}, {"properties": {"name": "Z\u00e1meck\u00fd are\u00e1l s parkem, Jind\u0159ichov", "btype": "Objekt (jedna budova)", "prev_usage": "Ob\u010dansk\u00e1 vybavenost (kulturn\u00ed domy, slu\u017eby, obchod, atd.)", "new_usage": "Sm\u00ed\u0161en\u00e9 m\u011bstsk\u00e9 funkce (obchod, bydlen\u00ed,..)", "area": "50000.0", "ecology": "Ne", "ownership": "Ve\u0159ejn\u00e9"}, "geometry": {"type": "Point", "coordinates": [17.536372222222223, 50.25198611111111]}, "type": "Feature"}, {"properties": {"name": "Objekt b\u00fdval\u00e9 kotelny, Kl\u00e1\u0161terec nad Orlic\u00ed", "btype": "Are\u00e1l (plocha s budovami)", "prev_usage": "Pr\u016fmysl", "new_usage": "Pr\u016fmysl a podnik\u00e1n\u00ed (slu\u017eby, obchod, kancel\u00e1\u0159e)", "area": "3352.0", "ecology": "Ne", "ownership": "Soukrom\u00e9"}, "geometry": {"type": "Point", "coordinates": [16.54260277777778, 50.111608333333336]}, "type": "Feature"}, {"properties": {"name": "Are\u00e1l Mega System, Most", "btype": "Are\u00e1l (plocha s budovami)", "prev_usage": "Pr\u016fmysl", "new_usage": "Pr\u016fmysl, monofunkce", "area": "5311.0", "ecology": "Lze p\u0159edpokl\u00e1dat", "ownership": "Soukrom\u00e9"}, "geometry": {"type": "Point", "coordinates": [13.656727777777778, 50.48025277777778]}, "type": "Feature"}, {"properties": {"name": "Le\u017e\u00e1ck\u00e9 sklepy, Lan\u0161kroun", "btype": "Objekt (jedna budova)", "prev_usage": "Pr\u016fmysl", "new_usage": "Sm\u00ed\u0161en\u00e9 m\u011bstsk\u00e9 funkce (obchod, bydlen\u00ed,..)", "area": "1881.0", "ecology": "Lze p\u0159edpokl\u00e1dat", "ownership": "Ve\u0159ejn\u00e9"}, "geometry": {"type": "Point", "coordinates": [16.609336111111112, 49.91226944444444]}, "type": "Feature"}, {"properties": {"name": "Krav\u00edn, \u010cist\u00e1", "btype": "Objekt (jedna budova)", "prev_usage": "Zem\u011bd\u011blstv\u00ed", "new_usage": "Pr\u016fmysl a podnik\u00e1n\u00ed (slu\u017eby, obchod, kancel\u00e1\u0159e)", "area": "911.0", "ecology": "Lze p\u0159edpokl\u00e1dat", "ownership": "Soukrom\u00e9"}, "geometry": {"type": "Point", "coordinates": [16.330066666666667, 49.83451388888889]}, "type": "Feature"}, {"properties": {"name": "Are\u00e1l firmy TON, a.s., Hole\u0161ov", "btype": "Objekt (jedna budova)", "prev_usage": "Pr\u016fmysl", "new_usage": null, "area": "5244.5", "ecology": "Ne", "ownership": "Soukrom\u00e9"}, "geometry": {"type": "Point", "coordinates": [17.571477777777776, 49.32568611111112]}, "type": "Feature"}, {"properties": {"name": "Pivovar, Brumov-Bylnice", "btype": "Are\u00e1l (plocha s budovami)", "prev_usage": "Pr\u016fmysl", "new_usage": null, "area": "49411.0", "ecology": null, "ownership": "Soukrom\u00e9"}, "geometry": {"type": "Point", "coordinates": [18.02031111111111, 49.090608333333336]}, "type": "Feature"}, {"properties": {"name": "Zem\u011bd\u011blsk\u00fd are\u00e1l, Stanovice", "btype": "Are\u00e1l (plocha s budovami)", "prev_usage": "Zem\u011bd\u011blstv\u00ed", "new_usage": null, "area": "1065.0", "ecology": null, "ownership": "Soukrom\u00e9"}, "geometry": {"type": "Point", "coordinates": [12.877752777777777, 50.16741111111111]}, "type": "Feature"}, {"properties": {"name": "Zem\u011bd\u011blsk\u00fd are\u00e1l, Bublava", "btype": "Are\u00e1l (plocha s budovami)", "prev_usage": "Zem\u011bd\u011blstv\u00ed", "new_usage": "Cestovn\u00ed ruch", "area": "35307.0", "ecology": "Ne", "ownership": "Soukrom\u00e9"}, "geometry": {"type": "Point", "coordinates": [12.499677777777777, 50.36708888888889]}, "type": "Feature"}, {"properties": {"name": "Are\u00e1l P\u0159\u00e1telstv\u00ed, Sokolov", "btype": "Are\u00e1l (plocha s budovami)", "prev_usage": "Jin\u00e9", "new_usage": "Pr\u016fmysl a podnik\u00e1n\u00ed (slu\u017eby, obchod, kancel\u00e1\u0159e)", "area": "16000.0", "ecology": null, "ownership": "Soukrom\u00e9"}, "geometry": {"type": "Point", "coordinates": [12.616158333333333, 50.157536111111106]}, "type": "Feature"}, {"properties": {"name": "Z\u00e1mek, Tou\u017eim", "btype": "Objekt (jedna budova)", "prev_usage": "Ob\u010dansk\u00e1 vybavenost (kulturn\u00ed domy, slu\u017eby, obchod, atd.)", "new_usage": "Ob\u010dansk\u00e1 vybavenost", "area": "6135.0", "ecology": "Ne", "ownership": "Ve\u0159ejn\u00e9"}, "geometry": {"type": "Point", "coordinates": [12.983163888888889, 50.059822222222216]}, "type": "Feature"}, {"properties": {"name": "Zbrojnice d\u011blost\u0159eleck\u00fdch kas\u00e1ren, Terez\u00edn", "btype": "Objekt (jedna budova)", "prev_usage": "Vojensk\u00e9 are\u00e1ly, kas\u00e1rny, st\u0159elnice", "new_usage": null, "area": "7242.0", "ecology": "Ne", "ownership": "Ve\u0159ejn\u00e9"}, "geometry": {"type": "Point", "coordinates": [14.148319166666667, 50.513085]}, "type": "Feature"}, {"properties": {"name": "Star\u00e1 nemocnice, Terez\u00edn", "btype": "Objekt (jedna budova)", "prev_usage": "Vojensk\u00e9 are\u00e1ly, kas\u00e1rny, st\u0159elnice", "new_usage": null, "area": "14246.0", "ecology": "Ne", "ownership": "Ve\u0159ejn\u00e9"}, "geometry": {"type": "Point", "coordinates": [14.152109166666667, 50.51142222222222]}, "type": "Feature"}, {"properties": {"name": "Are\u00e1l sl\u00e9v\u00e1rny, \u017dabokrky-Hronov", "btype": "Are\u00e1l (plocha s budovami)", "prev_usage": "Pr\u016fmysl", "new_usage": null, "area": "13053.0", "ecology": null, "ownership": "Soukrom\u00e9"}, "geometry": {"type": "Point", "coordinates": [16.194147222222224, 50.49409722222222]}, "type": "Feature"}, {"properties": {"name": "Wieserp\u016fv d\u016fm - PDA, Terez\u00edn", "btype": "Objekt (jedna budova)", "prev_usage": "Vojensk\u00e9 are\u00e1ly, kas\u00e1rny, st\u0159elnice", "new_usage": null, "area": "3947.0", "ecology": "Ne", "ownership": "Ve\u0159ejn\u00e9"}, "geometry": {"type": "Point", "coordinates": [14.146633611111112, 50.51191027777778]}, "type": "Feature"}, {"properties": {"name": "Zem\u011bd\u011blsk\u00fd are\u00e1l, L\u00e1zn\u011b Kyn\u017evart", "btype": "Objekt (jedna budova)", "prev_usage": "Zem\u011bd\u011blstv\u00ed", "new_usage": null, "area": "17819.0", "ecology": null, "ownership": "Soukrom\u00e9"}, "geometry": {"type": "Point", "coordinates": [12.611533333333332, 50.002741666666665]}, "type": "Feature"}, {"properties": {"name": "Are\u00e1l v centru, Jince", "btype": "Objekt (jedna budova)", "prev_usage": "Pr\u016fmysl", "new_usage": null, "area": "12927.0", "ecology": "Ne", "ownership": "Soukrom\u00e9"}, "geometry": {"type": "Point", "coordinates": [13.978008333333333, 49.788719444444446]}, "type": "Feature"}, {"properties": {"name": "Are\u00e1l Barbora-Budovy, Karvin\u00e1", "btype": "Are\u00e1l (plocha s budovami)", "prev_usage": "T\u011b\u017eba surovin", "new_usage": null, "area": "69072.0", "ecology": null, "ownership": "Kombinovan\u00e9"}, "geometry": {"type": "Point", "coordinates": [18.473768888888888, 49.823797222222225]}, "type": "Feature"}, {"properties": {"name": "Are\u00e1l Plav\u00edc\u00ed j\u00e1ma \u010d. 2 - Pozemky, Orlov\u00e1", "btype": "Pozemek (plocha bez objekt\u016f)", "prev_usage": "Pr\u016fmysl", "new_usage": null, "area": "72160.0", "ecology": null, "ownership": "Ve\u0159ejn\u00e9"}, "geometry": {"type": "Point", "coordinates": [18.426818333333333, 49.83872277777778]}, "type": "Feature"}, {"properties": {"name": "Uheln\u00fd d\u016fl, Doly Le\u017e\u00e1ky, Most", "btype": "Are\u00e1l (plocha s budovami)", "prev_usage": "T\u011b\u017eba surovin", "new_usage": null, "area": "104055.0", "ecology": "Ano", "ownership": "Kombinovan\u00e9"}, "geometry": {"type": "Point", "coordinates": [13.628602777777779, 50.54629166666666]}, "type": "Feature"}, {"properties": {"name": "S\u00e1dky,Ostrava - Svinov", "btype": "Are\u00e1l (plocha s budovami)", "prev_usage": "Pr\u016fmysl", "new_usage": null, "area": "66806.0", "ecology": null, "ownership": "Soukrom\u00e9"}, "geometry": {"type": "Point", "coordinates": [18.20873333333333, 49.81135833333333]}, "type": "Feature"}, {"properties": {"name": "B\u00fdval\u00e1 fara, Mart\u00ednkovice", "btype": "Are\u00e1l (plocha s budovami)", "prev_usage": "Jin\u00e9", "new_usage": null, "area": "4000.0", "ecology": null, "ownership": "Ve\u0159ejn\u00e9"}, "geometry": {"type": "Point", "coordinates": [16.34450722222222, 50.54776805555555]}, "type": "Feature"}, {"properties": {"name": "Textiln\u00ed tov\u00e1rna, Budyn\u011b nad Oh\u0159\u00ed", "btype": "Objekt (jedna budova)", "prev_usage": "Pr\u016fmysl", "new_usage": null, "area": "13526.0", "ecology": "Ano", "ownership": "Soukrom\u00e9"}, "geometry": {"type": "Point", "coordinates": [14.127688888888889, 50.40623333333333]}, "type": "Feature"}, {"properties": {"name": "Pozemkov\u00e9 Parcely (B\u00edlinsk\u00e1 36), Duchcov", "btype": "Are\u00e1l (plocha s budovami)", "prev_usage": "Pr\u016fmysl", "new_usage": null, "area": "39869.0", "ecology": "Lze p\u0159edpokl\u00e1dat", "ownership": "Soukrom\u00e9"}, "geometry": {"type": "Point", "coordinates": [13.749138888888888, 50.59973611111111]}, "type": "Feature"}, {"properties": {"name": "Hospod\u00e1\u0159sk\u00e9 budovy u z\u00e1mku, Kosmonosy", "btype": "Are\u00e1l (plocha s budovami)", "prev_usage": "Zem\u011bd\u011blstv\u00ed", "new_usage": "Sm\u00ed\u0161en\u00e1 zem\u011bd\u011blsk\u00e1 funkce", "area": "30984.0", "ecology": "Ne", "ownership": "Soukrom\u00e9"}, "geometry": {"type": "Point", "coordinates": [14.9216, 50.440330555555555]}, "type": "Feature"}, {"properties": {"name": "Plou\u010dnice - \u0161kola, Ralsko", "btype": "Objekt (jedna budova)", "prev_usage": "Ob\u010dansk\u00e1 vybavenost (kulturn\u00ed domy, slu\u017eby, obchod, atd.)", "new_usage": null, "area": "15225.0", "ecology": "Ne", "ownership": "Ve\u0159ejn\u00e9"}, "geometry": {"type": "Point", "coordinates": [14.750977777777777, 50.63008333333333]}, "type": "Feature"}, {"properties": {"name": "Hrazen\u00e1 Lhota - are\u00e1l z\u00e1sobn\u00edk\u016f paliva, Vla\u0161im", "btype": "Pozemek (plocha bez objekt\u016f)", "prev_usage": "Pr\u016fmysl", "new_usage": null, "area": "75437.0", "ecology": "Lze p\u0159edpokl\u00e1dat", "ownership": "Soukrom\u00e9"}, "geometry": {"type": "Point", "coordinates": [14.838202777777779, 49.71435277777778]}, "type": "Feature"}, {"properties": {"name": "b\u00fdval\u00fd are\u00e1l \u010dkolo\u00e1doven, Velim", "btype": "Are\u00e1l (plocha s budovami)", "prev_usage": "Pr\u016fmysl", "new_usage": null, "area": "9951.0", "ecology": "Ne", "ownership": "Soukrom\u00e9"}, "geometry": {"type": "Point", "coordinates": [15.128675000000001, 50.06723055555556]}, "type": "Feature"}, {"properties": {"name": "B\u00fdval\u00fd vojensk\u00fd are\u00e1l, Osoblaha", "btype": "Are\u00e1l (plocha s budovami)", "prev_usage": "Vojensk\u00e9 are\u00e1ly, kas\u00e1rny, st\u0159elnice", "new_usage": null, "area": "7155.0", "ecology": null, "ownership": "Kombinovan\u00e9"}, "geometry": {"type": "Point", "coordinates": [17.711741666666665, 50.273241666666664]}, "type": "Feature"}, {"properties": {"name": "Nov\u00fd dv\u016fr, Ralsko", "btype": "Are\u00e1l (plocha s budovami)", "prev_usage": "Vojensk\u00e9 are\u00e1ly, kas\u00e1rny, st\u0159elnice", "new_usage": null, "area": "37740.0", "ecology": "Ne", "ownership": "Ve\u0159ejn\u00e9"}, "geometry": {"type": "Point", "coordinates": [14.79881111111111, 50.65388055555555]}, "type": "Feature"}, {"properties": {"name": "Velitelsk\u00fd \u0161t\u00e1b, Ralsko", "btype": "Are\u00e1l (plocha s budovami)", "prev_usage": "Vojensk\u00e9 are\u00e1ly, kas\u00e1rny, st\u0159elnice", "new_usage": null, "area": "28945.0", "ecology": "Ne", "ownership": "Ve\u0159ejn\u00e9"}, "geometry": {"type": "Point", "coordinates": [14.815961111111111, 50.65586111111111]}, "type": "Feature"}, {"properties": {"name": "Usedlost, Kyn\u0161perk nad Oh\u0159\u00ed", "btype": "Objekt (jedna budova)", "prev_usage": "Jin\u00e9", "new_usage": "Ob\u010dansk\u00e1 vybavenost", "area": "3104.0", "ecology": "Ne", "ownership": "Soukrom\u00e9"}, "geometry": {"type": "Point", "coordinates": [12.538502777777778, 50.103633333333335]}, "type": "Feature"}, {"properties": {"name": "Zem\u011bd\u011blsk\u00e1 usedlost \u010d. p. 55, Linhartice", "btype": "Objekt (jedna budova)", "prev_usage": "Zem\u011bd\u011blstv\u00ed", "new_usage": null, "area": "20000.0", "ecology": "Ne", "ownership": "Soukrom\u00e9"}, "geometry": {"type": "Point", "coordinates": [16.702929166666667, 49.75760777777778]}, "type": "Feature"}, {"properties": {"name": "Po\u0161ta J\u00e1chymov", "btype": "Objekt (jedna budova)", "prev_usage": "Ob\u010dansk\u00e1 vybavenost (kulturn\u00ed domy, slu\u017eby, obchod, atd.)", "new_usage": "Ob\u010dansk\u00e1 vybavenost", "area": "615.0", "ecology": "Ne", "ownership": "Soukrom\u00e9"}, "geometry": {"type": "Point", "coordinates": [12.916250277777777, 50.37030583333333]}, "type": "Feature"}, {"properties": {"name": "B\u00fdval\u00e1 sokolovna \u010d.p. 108, \u0160t\u011bke\u0148", "btype": "Objekt (jedna budova)", "prev_usage": "Ob\u010dansk\u00e1 vybavenost (kulturn\u00ed domy, slu\u017eby, obchod, atd.)", "new_usage": "Ob\u010dansk\u00e1 vybavenost", "area": "2000.0", "ecology": "Ne", "ownership": "Ve\u0159ejn\u00e9"}, "geometry": {"type": "Point", "coordinates": [14.0044875, 49.26683]}, "type": "Feature"}, {"properties": {"name": "Haly u n\u00e1dra\u017e\u00ed, \u017dlutice", "btype": "Are\u00e1l (plocha s budovami)", "prev_usage": "Pr\u016fmysl", "new_usage": null, "area": "10000.0", "ecology": "Ne", "ownership": "Soukrom\u00e9"}, "geometry": {"type": "Point", "coordinates": [13.161945000000001, 50.08560777777778]}, "type": "Feature"}, {"properties": {"name": "Obalovna Mari\u00e1nsk\u00e9 l\u00e1zn\u011b", "btype": "Are\u00e1l (plocha s budovami)", "prev_usage": "Pr\u016fmysl", "new_usage": "Pr\u016fmysl, monofunkce", "area": "29568.0", "ecology": "Ne", "ownership": "Ve\u0159ejn\u00e9"}, "geometry": {"type": "Point", "coordinates": [12.69551388888889, 49.948388888888886]}, "type": "Feature"}, {"properties": {"name": "\u0160p\u00fdchar, Nov\u00e1 Ves u \u010c\u00ed\u017eov\u00e9", "btype": "Objekt (jedna budova)", "prev_usage": "Zem\u011bd\u011blstv\u00ed", "new_usage": "Ob\u010dansk\u00e1 vybavenost", "area": "800.0", "ecology": "Ne", "ownership": "Ve\u0159ejn\u00e9"}, "geometry": {"type": "Point", "coordinates": [14.09408, 49.35699416666667]}, "type": "Feature"}, {"properties": {"name": "Kn\u00ed\u017eec\u00ed pivovar, Prachatice", "btype": "Objekt (jedna budova)", "prev_usage": "Pr\u016fmysl", "new_usage": null, "area": "1400.0", "ecology": "Ne", "ownership": "Soukrom\u00e9"}, "geometry": {"type": "Point", "coordinates": [14.003256944444445, 49.01116472222222]}, "type": "Feature"}, {"properties": {"name": "Pr\u016fmyslov\u00fd are\u00e1l, Prachatice", "btype": "Are\u00e1l (plocha s budovami)", "prev_usage": "Pr\u016fmysl", "new_usage": null, "area": "57700.0", "ecology": "Ne", "ownership": "Soukrom\u00e9"}, "geometry": {"type": "Point", "coordinates": [14.0039775, 49.00966416666667]}, "type": "Feature"}, {"properties": {"name": "Z\u00e1kladn\u00ed \u0161kola, Z\u00e1blat\u00ed u Prachatic", "btype": "Are\u00e1l (plocha s budovami)", "prev_usage": "Ob\u010dansk\u00e1 vybavenost (kulturn\u00ed domy, slu\u017eby, obchod, atd.)", "new_usage": "Bydlen\u00ed", "area": "900.0", "ecology": "Ne", "ownership": "Ve\u0159ejn\u00e9"}, "geometry": {"type": "Point", "coordinates": [13.932384166666665, 48.99679861111111]}, "type": "Feature"}, {"properties": {"name": "Hotel Nov\u00e1 Pec, Nov\u00e1 Pec", "btype": "Objekt (jedna budova)", "prev_usage": "Ob\u010dansk\u00e1 vybavenost (kulturn\u00ed domy, slu\u017eby, obchod, atd.)", "new_usage": null, "area": "6871.0", "ecology": "Ne", "ownership": "Soukrom\u00e9"}, "geometry": {"type": "Point", "coordinates": [13.950875, 48.78946694444444]}, "type": "Feature"}, {"properties": {"name": "Textiln\u00ed tov\u00e1rna, Horn\u00ed Mezi\u0159\u00ed\u010dko", "btype": "Are\u00e1l (plocha s budovami)", "prev_usage": "Pr\u016fmysl", "new_usage": null, "area": "13100.0", "ecology": "Ne", "ownership": "Soukrom\u00e9"}, "geometry": {"type": "Point", "coordinates": [15.242431944444444, 49.15358833333333]}, "type": "Feature"}, {"properties": {"name": "\u0160kola - z\u00e1mek, Bude\u010d", "btype": "Objekt (jedna budova)", "prev_usage": "Ob\u010dansk\u00e1 vybavenost (kulturn\u00ed domy, slu\u017eby, obchod, atd.)", "new_usage": null, "area": "10800.0", "ecology": "Ne", "ownership": "Kombinovan\u00e9"}, "geometry": {"type": "Point", "coordinates": [15.58872888888889, 49.08580694444445]}, "type": "Feature"}, {"properties": {"name": "St\u0159edn\u00ed odborn\u00e1 \u0161kola, Vesel\u00ed\u010dko u Milevska", "btype": "Are\u00e1l (plocha s budovami)", "prev_usage": "Ob\u010dansk\u00e1 vybavenost (kulturn\u00ed domy, slu\u017eby, obchod, atd.)", "new_usage": "Ob\u010dansk\u00e1 vybavenost", "area": "19000.0", "ecology": "Ne", "ownership": "Soukrom\u00e9"}, "geometry": {"type": "Point", "coordinates": [14.355260277777777, 49.388893055555556]}, "type": "Feature"}, {"properties": {"name": "Kino, Str\u00e1\u017eek", "btype": "Objekt (jedna budova)", "prev_usage": "Ob\u010dansk\u00e1 vybavenost (kulturn\u00ed domy, slu\u017eby, obchod, atd.)", "new_usage": null, "area": "500.0", "ecology": "Ne", "ownership": "Ve\u0159ejn\u00e9"}, "geometry": {"type": "Point", "coordinates": [16.19446, 49.440106666666665]}, "type": "Feature"}, {"properties": {"name": "\u0160kola, Bystr\u00e1 nad Jizerou", "btype": "Objekt (jedna budova)", "prev_usage": "Pr\u016fmysl", "new_usage": "Ob\u010dansk\u00e1 vybavenost", "area": "234.0", "ecology": null, "ownership": "Ve\u0159ejn\u00e9"}, "geometry": {"type": "Point", "coordinates": [15.4, 50.60277777777778]}, "type": "Feature"}, {"properties": {"name": "Kotelna, Fr\u00fddlant", "btype": "Objekt (jedna budova)", "prev_usage": "Pr\u016fmysl", "new_usage": "Ob\u010dansk\u00e1 vybavenost", "area": "682.0", "ecology": "Lze p\u0159edpokl\u00e1dat", "ownership": "Ve\u0159ejn\u00e9"}, "geometry": {"type": "Point", "coordinates": [15.088225277777779, 50.926606388888885]}, "type": "Feature"}, {"properties": {"name": "Keramick\u00e9 z\u00e1vody, \u0160atov", "btype": "Are\u00e1l (plocha s budovami)", "prev_usage": "Pr\u016fmysl", "new_usage": "Pr\u016fmysl a podnik\u00e1n\u00ed (slu\u017eby, obchod, kancel\u00e1\u0159e)", "area": "108820.0", "ecology": "Ne", "ownership": "Soukrom\u00e9"}, "geometry": {"type": "Point", "coordinates": [16.024666666666665, 48.781083333333335]}, "type": "Feature"}, {"properties": {"name": "Pr\u00e1delna J\u00e1chymov", "btype": "Are\u00e1l (plocha s budovami)", "prev_usage": "Ob\u010dansk\u00e1 vybavenost (kulturn\u00ed domy, slu\u017eby, obchod, atd.)", "new_usage": "Ob\u010dansk\u00e1 vybavenost", "area": "2469.0", "ecology": "Ne", "ownership": "Soukrom\u00e9"}, "geometry": {"type": "Point", "coordinates": [12.935055555555556, 50.366286111111116]}, "type": "Feature"}, {"properties": {"name": "Statky, Pernek", "btype": "Are\u00e1l (plocha s budovami)", "prev_usage": "Bydlen\u00ed", "new_usage": "Ob\u010dansk\u00e1 vybavenost", "area": "2151.0", "ecology": "Ne", "ownership": "Kombinovan\u00e9"}, "geometry": {"type": "Point", "coordinates": [13.997142222222221, 48.79268555555555]}, "type": "Feature"}, {"properties": {"name": "Krav\u00edn, \u00dajezd u Uni\u010dova", "btype": "Objekt (jedna budova)", "prev_usage": "Zem\u011bd\u011blstv\u00ed", "new_usage": "Ob\u010dansk\u00e1 vybavenost", "area": "2807.0", "ecology": "Ne", "ownership": "Soukrom\u00e9"}, "geometry": {"type": "Point", "coordinates": [17.19602972222222, 49.76852638888889]}, "type": "Feature"}, {"properties": {"name": "Budova u are\u00e1lu z\u00e1mku, N\u00e1m\u011b\u0161\u0165 nad Oslavou", "btype": "Objekt (jedna budova)", "prev_usage": "Zem\u011bd\u011blstv\u00ed", "new_usage": null, "area": "923.0", "ecology": "Ano", "ownership": "Kombinovan\u00e9"}, "geometry": {"type": "Point", "coordinates": [16.166040555555554, 49.210681388888894]}, "type": "Feature"},