{"type": "FeatureCollection", "features": [{"properties": {"name": "Malostransk\u00e1 z\u00e1kladn\u00ed \u0161kola", "id": "60436093", "address": "Josefsk\u00e1 626/7, Mal\u00e1 Strana, 11800 Praha 1"}, "geometry": {"type": "Point", "coordinates": [14.405437006525412, 50.08830733912594]}, "type": "Feature"}, {"properties": {"name": "Malostransk\u00e1 z\u00e1kladn\u00ed \u0161kola", "id": "60436093", "address": "Karmelitsk\u00e1 546/13, Mal\u00e1 Strana, 11800 Praha 1"}, "geometry": {"type": "Point", "coordinates": [14.403297756522809, 50.08622875108553]}, "type": "Feature"}, {"properties": {"name": "\u0160kola Jaroslava Je\u017eka, Mate\u0159sk\u00e1 \u0161kola, z\u00e1kladn\u00ed \u0161kola, praktick\u00e1 \u0161kola a z\u00e1kladn\u00ed um\u011bleck\u00e1 \u0161kola pro zrakov\u011b posti\u017een\u00e9, Praha 1, Loret\u00e1nsk\u00e1 19 a 17", "id": "48134546", "address": "Loret\u00e1nsk\u00e1 104/19, Hrad\u010dany, 11800 Praha 1"}, "geometry": {"type": "Point", "coordinates": [14.392400518755858, 50.088347585674526]}, "type": "Feature"}, {"properties": {"name": "Vesel\u00e1 \u0161kola - c\u00edrkevn\u00ed z\u00e1kladn\u00ed \u0161kola a z\u00e1kladn\u00ed um\u011bleck\u00e1 \u0161kola", "id": "45246726", "address": "Soukenick\u00e1 1088/10, Nov\u00e9 M\u011bsto, 11000 Praha 1"}, "geometry": {"type": "Point", "coordinates": [14.428915770594944, 50.090885196404365]}, "type": "Feature"}, {"properties": {"name": "Z\u00e1kladn\u00ed \u0161kola a mate\u0159sk\u00e1 \u0161kola Parentes Praha", "id": "71341048", "address": "Radlick\u00e1 2483/138, Sm\u00edchov, 15000 Praha 5"}, "geometry": {"type": "Point", "coordinates": [14.393787637206165, 50.0599636970064]}, "type": "Feature"}, {"properties": {"name": "Z\u00e1kladn\u00ed \u0161kola a St\u0159edn\u00ed \u0161kola Karla Herforta, fakultn\u00ed \u0161kola Pedagogick\u00e9 fakulty UK, Praha 1, Josefsk\u00e1 4", "id": "60436107", "address": "Josefsk\u00e1 43/4, Mal\u00e1 Strana, 11800 Praha 1"}, "geometry": {"type": "Point", "coordinates": [14.4056688003302, 50.088152447367534]}, "type": "Feature"}, {"properties": {"name": "Z\u00e1kladn\u00ed \u0161kola Br\u00e1na jazyk\u016f s roz\u0161\u00ed\u0159enou v\u00fdukou matematiky", "id": "60436123", "address": "Uheln\u00fd trh 425/4, Star\u00e9 M\u011bsto, 11000 Praha 1"}, "geometry": {"type": "Point", "coordinates": [14.420002047270216, 50.08428407022227]}, "type": "Feature"}, {"properties": {"name": "Z\u00e1kladn\u00ed \u0161kola Br\u00e1na jazyk\u016f s roz\u0161\u00ed\u0159enou v\u00fdukou matematiky", "id": "60436123", "address": "Vojt\u011b\u0161sk\u00e1 216/13, Nov\u00e9 M\u011bsto, 11000 Praha 1"}, "geometry": {"type": "Point", "coordinates": [14.415044482521829, 50.078921916335005]}, "type": "Feature"}, {"properties": {"name": "Z\u00e1kladn\u00ed \u0161kola J. Gutha-Jarkovsk\u00e9ho", "id": "60436166", "address": "Truhl\u00e1\u0159sk\u00e1 1120/22, Nov\u00e9 M\u011bsto, 11000 Praha 1"}, "geometry": {"type": "Point", "coordinates": [14.431422810052007, 50.09092692379652]}, "type": "Feature"}, {"properties": {"name": "Z\u00e1kladn\u00ed \u0161kola n\u00e1m. Curieov\u00fdch", "id": "60436115", "address": "n\u00e1m\u011bst\u00ed Curieov\u00fdch 886/2, Star\u00e9 M\u011bsto, 11000 Praha 1"}, "geometry": {"type": "Point", "coordinates": [14.419825810619837, 50.092037468409124]}, "type": "Feature"}, {"properties": {"name": "Z\u00e1kladn\u00ed \u0161kola sv. Vor\u0161ily v Praze", "id": "45246751", "address": "Ostrovn\u00ed 2070/9, Nov\u00e9 M\u011bsto, 11000 Praha 1"}, "geometry": {"type": "Point", "coordinates": [14.415286743182193, 50.08051305750084]}, "type": "Feature"}, {"properties": {"name": "Z\u00e1kladn\u00ed \u0161kola Vodi\u010dkova", "id": "60436140", "address": "Vodi\u010dkova 683/22, Nov\u00e9 M\u011bsto, 11000 Praha 1"}, "geometry": {"type": "Point", "coordinates": [14.423427748207578, 50.07984665682341]}, "type": "Feature"}, {"properties": {"name": "Z\u00e1kladn\u00ed \u0161kola Vodi\u010dkova", "id": "60436140", "address": "Jind\u0159i\u0161sk\u00e1 974/32, Nov\u00e9 M\u011bsto, 11000 Praha 1"}, "geometry": {"type": "Point", "coordinates": [14.430379607650117, 50.08461059720022]}, "type": "Feature"}, {"properties": {"name": "Z\u00e1kladn\u00ed \u0161kola Vodi\u010dkova", "id": "60436140", "address": "Jeruzal\u00e9msk\u00e1 961/5, Nov\u00e9 M\u011bsto, 11000 Praha 1"}, "geometry": {"type": "Point", "coordinates": [14.431831320419432, 50.08488055709366]}, "type": "Feature"}, {"properties": {"name": "D\u011btsk\u00fd domov se \u0161kolou, st\u0159edisko v\u00fdchovn\u00e9 p\u00e9\u010de a z\u00e1kladn\u00ed \u0161kola, Praha 2, Jana Masaryka 16", "id": "65993381", "address": "Jana Masaryka 64/16, Vinohrady, 12000 Praha 2"}, "geometry": {"type": "Point", "coordinates": [14.437577240204831, 50.07047092776753]}, "type": "Feature"}, {"properties": {"name": "Gymn\u00e1zium, St\u0159edn\u00ed odborn\u00e1 \u0161kola, Z\u00e1kladn\u00ed \u0161kola a Mate\u0159sk\u00e1 \u0161kola pro sluchov\u011b posti\u017een\u00e9, Praha 2, Je\u010dn\u00e1 27", "id": "61388149", "address": "Je\u010dn\u00e1 530/27, Nov\u00e9 M\u011bsto, 12000 Praha 2"}, "geometry": {"type": "Point", "coordinates": [14.424875319083533, 50.075785580017715]}, "type": "Feature"}, {"properties": {"name": "Jedli\u010dk\u016fv \u00fastav a Mate\u0159sk\u00e1 \u0161kola a Z\u00e1kladn\u00ed \u0161kola a St\u0159edn\u00ed \u0161kola", "id": "70873160", "address": "V pevnosti 13/4, Vy\u0161ehrad, 12800 Praha 2"}, "geometry": {"type": "Point", "coordinates": [14.42256267092633, 50.06248537379391]}, "type": "Feature"}, {"properties": {"name": "Lauderova mate\u0159sk\u00e1 \u0161kola, z\u00e1kladn\u00ed \u0161kola a gymn\u00e1zium p\u0159i \u017didovsk\u00e9 obci v Praze", "id": "69780111", "address": "Belgick\u00e1 67/25, Vinohrady, 12000 Praha 2"}, "geometry": {"type": "Point", "coordinates": [14.435877241174655, 50.073287349640545]}, "type": "Feature"}, {"properties": {"name": "Soukrom\u00e1 z\u00e1kladn\u00ed \u0161kola Integr\u00e1l pro \u017e\u00e1ky se specifick\u00fdmi poruchami u\u010den\u00ed, s.r.o.", "id": "25602578", "address": "Jana Masaryka 360/25, Vinohrady, 12000 Praha 2"}, "geometry": {"type": "Point", "coordinates": [14.438356457774557, 50.07167616034198]}, "type": "Feature"}, {"properties": {"name": "Z\u00e1kladn\u00ed \u0161kola a Mate\u0159sk\u00e1 \u0161kola, Praha 2, Resslova 10", "id": "60460318", "address": "Resslova 308/10, Nov\u00e9 M\u011bsto, 12000 Praha 2"}, "geometry": {"type": "Point", "coordinates": [14.417715143398254, 50.07578813447137]}, "type": "Feature"}, {"properties": {"name": "Z\u00e1kladn\u00ed \u0161kola a St\u0159edn\u00ed \u0161kola, Praha 2, Vinohradsk\u00e1 54", "id": "61389447", "address": "Vinohradsk\u00e1 920/54, Vinohrady, 12000 Praha 2"}, "geometry": {"type": "Point", "coordinates": [14.443478765758037, 50.076924207777544]}, "type": "Feature"}, {"properties": {"name": "Z\u00e1kladn\u00ed \u0161kola pro zrakov\u011b posti\u017een\u00e9, Praha 2, n\u00e1m. M\u00edru 19", "id": "48133035", "address": "n\u00e1m\u011bst\u00ed M\u00edru 601/19, Vinohrady, 12000 Praha 2"}, "geometry": {"type": "Point", "coordinates": [14.435279114513666, 50.07500992507247]}, "type": "Feature"}, {"properties": {"name": "Z\u00e1kladn\u00ed \u0161kola s roz\u0161\u00ed\u0159enou v\u00fdukou jazyk\u016f, Fakultn\u00ed \u0161kola Pedagogick\u00e9 fakulty UK, Praha 2, Kladsk\u00e1 1", "id": "49624911", "address": "Kladsk\u00e1 1201/1, Vinohrady, 12000 Praha 2"}, "geometry": {"type": "Point", "coordinates": [14.447696834298736, 50.07331002400234]}, "type": "Feature"}, {"properties": {"name": "Z\u00e1kladn\u00ed \u0161kola u svat\u00e9ho \u0160t\u011bp\u00e1na, Praha 2, \u0160t\u011bp\u00e1nsk\u00e1 8", "id": "47610361", "address": "\u0160t\u011bp\u00e1nsk\u00e1 1286/8, Nov\u00e9 M\u011bsto, 12000 Praha 2"}, "geometry": {"type": "Point", "coordinates": [14.424851870539975, 50.07684627719145]}, "type": "Feature"}, {"properties": {"name": "Z\u00e1kladn\u00ed \u0161kola, Fakultn\u00ed \u0161kola Pedagogick\u00e9 fakulty UK, Praha 2, Slovensk\u00e1 27", "id": "47609842", "address": "Slovensk\u00e1 1726/27, Vinohrady, 12000 Praha 2"}, "geometry": {"type": "Point", "coordinates": [14.447091670063125, 50.07281106921776]}, "type": "Feature"}, {"properties": {"name": "Z\u00e1kladn\u00ed \u0161kola, Praha 2, Boti\u010dsk\u00e1 8", "id": "48134201", "address": "Boti\u010dsk\u00e1 130/8, Vy\u0161ehrad, 12800 Praha 2"}, "geometry": {"type": "Point", "coordinates": [14.419450244414044, 50.06863862570921]}, "type": "Feature"}, {"properties": {"name": "Z\u00e1kladn\u00ed \u0161kola, Praha 2, Jana Masaryka 21", "id": "47610859", "address": "Jana Masaryka 400/21, Vinohrady, 12000 Praha 2"}, "geometry": {"type": "Point", "coordinates": [14.43771541848412, 50.07138480029159]}, "type": "Feature"}, {"properties": {"name": "Z\u00e1kladn\u00ed \u0161kola, Praha 2, Lond\u00fdnsk\u00e1 34", "id": "47609737", "address": "Lond\u00fdnsk\u00e1 782/34, Vinohrady, 12000 Praha 2"}, "geometry": {"type": "Point", "coordinates": [14.43455771960371, 50.07366339400113]}, "type": "Feature"}, {"properties": {"name": "Z\u00e1kladn\u00ed \u0161kola, Praha 2, Na Smetance 1", "id": "47611928", "address": "Na Smetance 505/1, Vinohrady, 12000 Praha 2"}, "geometry": {"type": "Point", "coordinates": [14.435833261893798, 50.08010376215229]}, "type": "Feature"}, {"properties": {"name": "Z\u00e1kladn\u00ed \u0161kola, Praha 2, S\u00e1zavsk\u00e1 5", "id": "48132926", "address": "S\u00e1zavsk\u00e1 830/5, Vinohrady, 12000 Praha 2"}, "geometry": {"type": "Point", "coordinates": [14.44049204304787, 50.074370843870994]}, "type": "Feature"}, {"properties": {"name": "Z\u00e1kladn\u00ed \u0161kola, Praha 2, Vratislavova 13", "id": "47610425", "address": "Vratislavova 64/13, Vy\u0161ehrad, 12800 Praha 2"}, "geometry": {"type": "Point", "coordinates": [14.418438702676264, 50.066761445501896]}, "type": "Feature"}, {"properties": {"name": "Z\u00e1kladn\u00ed \u0161kola a mate\u0159sk\u00e1 \u0161kola Jaroslava Seiferta, Praha 3, Vlkova 31/800", "id": "63831431", "address": "Vlkova 800/31, \u017di\u017ekov, 13000 Praha 3"}, "geometry": {"type": "Point", "coordinates": [14.447445860060506, 50.08374923805776]}, "type": "Feature"}, {"properties": {"name": "Z\u00e1kladn\u00ed \u0161kola a mate\u0159sk\u00e1 \u0161kola Jarov, Praha 3, V Zahr\u00e1dk\u00e1ch 48/1966", "id": "63831449", "address": "V zahr\u00e1dk\u00e1ch 1966/48, \u017di\u017ekov, 13000 Praha 3"}, "geometry": {"type": "Point", "coordinates": [14.48699235091215, 50.09165782181464]}, "type": "Feature"}, {"properties": {"name": "Z\u00e1kladn\u00ed \u0161kola a mate\u0159sk\u00e1 \u0161kola, Praha 3, Chel\u010dick\u00e9ho 43/2614", "id": "63831333", "address": "Chel\u010dick\u00e9ho 2614/43, \u017di\u017ekov, 13000 Praha 3"}, "geometry": {"type": "Point", "coordinates": [14.459540246854274, 50.08381171216736]}, "type": "Feature"}, {"properties": {"name": "Z\u00e1kladn\u00ed \u0161kola a mate\u0159sk\u00e1 \u0161kola, Praha 3, Chel\u010dick\u00e9ho 43/2614", "id": "63831333", "address": "\u017derot\u00ednova 1100/36, \u017di\u017ekov, 13000 Praha 3"}, "geometry": {"type": "Point", "coordinates": [14.462378745972414, 50.08782254049437]}, "type": "Feature"}, {"properties": {"name": "Z\u00e1kladn\u00ed \u0161kola a mate\u0159sk\u00e1 \u0161kola, Praha 3, n\u00e1m. Ji\u0159\u00edho z Lobkovic 22/121", "id": "63831406", "address": "n\u00e1m\u011bst\u00ed Ji\u0159\u00edho z Lobkovic 121/22, Vinohrady, 13000 Praha 3"}, "geometry": {"type": "Point", "coordinates": [14.467030670450821, 50.07699907024476]}, "type": "Feature"}, {"properties": {"name": "Z\u00e1kladn\u00ed \u0161kola a mate\u0159sk\u00e1 \u0161kola, Praha 3, n\u00e1m. Ji\u0159\u00edho z Lobkovic 22/121", "id": "63831406", "address": "Perunova 975/6, Vinohrady, 13000 Praha 3"}, "geometry": {"type": "Point", "coordinates": [14.454355704115653, 50.07615180241631]}, "type": "Feature"}, {"properties": {"name": "Z\u00e1kladn\u00ed \u0161kola Chmelnice, Praha 3, K Lu\u010din\u00e1m 18/2500", "id": "63831350", "address": "K lu\u010din\u00e1m 2500/18, \u017di\u017ekov, 13000 Praha 3"}, "geometry": {"type": "Point", "coordinates": [14.49081053153008, 50.093788092545545]}, "type": "Feature"}, {"properties": {"name": "Z\u00e1kladn\u00ed \u0161kola Pra\u017ea\u010dka, Praha 3, Nad Ohradou 25/1700", "id": "63831376", "address": "Nad Ohradou 1700/25, \u017di\u017ekov, 13000 Praha 3"}, "geometry": {"type": "Point", "coordinates": [14.477362814879006, 50.093087917139115]}, "type": "Feature"}, {"properties": {"name": "Z\u00e1kladn\u00ed \u0161kola Zahr\u00e1dka, Praha 3, U Z\u00e1sobn\u00ed zahrady 8", "id": "70845883", "address": "U z\u00e1sobn\u00ed zahrady 2445/8, \u017di\u017ekov, 13000 Praha 3"}, "geometry": {"type": "Point", "coordinates": [14.467173489356831, 50.086811892012584]}, "type": "Feature"}, {"properties": {"name": "Z\u00e1kladn\u00ed \u0161kola, Praha 3, Cimburkova 18/600", "id": "63831325", "address": "Cimburkova 600/18, \u017di\u017ekov, 13000 Praha 3"}, "geometry": {"type": "Point", "coordinates": [14.450655868953037, 50.085899312718475]}, "type": "Feature"}, {"properties": {"name": "Z\u00e1kladn\u00ed \u0161kola, Praha 3, Jeseniova 96/2400", "id": "63831341", "address": "Jeseniova 2400/96, \u017di\u017ekov, 13000 Praha 3"}, "geometry": {"type": "Point", "coordinates": [14.470535164571215, 50.088541444075716]}, "type": "Feature"}, {"properties": {"name": "Z\u00e1kladn\u00ed \u0161kola, Praha 3, Lup\u00e1\u010dova 1/1200", "id": "63831368", "address": "Lup\u00e1\u010dova 1200/3, \u017di\u017ekov, 13000 Praha 3"}, "geometry": {"type": "Point", "coordinates": [14.456206271048549, 50.08310173463312]}, "type": "Feature"}, {"properties": {"name": "Z\u00e1kladn\u00ed \u0161kola, Praha 3, n\u00e1m. Ji\u0159\u00edho z Pod\u011bbrad 7,8/1685", "id": "63831392", "address": "n\u00e1m\u011bst\u00ed Ji\u0159\u00edho z Pod\u011bbrad 1685/8, Vinohrady, 13000 Praha 3"}, "geometry": {"type": "Point", "coordinates": [14.449676552237587, 50.07861857955233]}, "type": "Feature"}, {"properties": {"name": "\u010cesko Britsk\u00e1 Z\u00e1kladn\u00ed \u0160kola, s.r.o.", "id": "25108093", "address": "K lesu 558/2, Kam\u00fdk, 14200 Praha 4"}, "geometry": {"type": "Point", "coordinates": [14.443750397217828, 50.01149523977033]}, "type": "Feature"}, {"properties": {"name": "D\u011btsk\u00fd diagnostick\u00fd \u00fastav, z\u00e1kladn\u00ed \u0161kola a \u0161koln\u00ed j\u00eddelna, Praha 4, U Michelsk\u00e9ho lesa 222", "id": "48134333", "address": "U Michelsk\u00e9ho lesa 222, Michle, 14000 Praha 4"}, "geometry": {"type": "Point", "coordinates": [14.459306000251742, 50.036243876612566]}, "type": "Feature"}, {"properties": {"name": "EDUCAnet - gymn\u00e1zium, st\u0159edn\u00ed odborn\u00e1 \u0161kola a z\u00e1kladn\u00ed \u0161kola Praha, s.r.o.", "id": "25147846", "address": "Roztylsk\u00e1 1860/1, Chodov, 14800 Praha 4"}, "geometry": {"type": "Point", "coordinates": [14.49912047773767, 50.02211888202177]}, "type": "Feature"}, {"properties": {"name": "Klasick\u00e9 gymn\u00e1zium Mod\u0159any a z\u00e1kladn\u00ed \u0161kola, s.r.o.", "id": "61054682", "address": "Rakovsk\u00e9ho 3136/1, Mod\u0159any, 14300 Praha 4"}, "geometry": {"type": "Point", "coordinates": [14.42383744565286, 50.00955310019071]}, "type": "Feature"}, {"properties": {"name": "K\u0159es\u0165ansk\u00e1 st\u0159edn\u00ed \u0161kola, z\u00e1kladn\u00ed \u0161kola a mate\u0159sk\u00e1 \u0161kola Elij\u00e1\u0161, Praha 4 - Michle", "id": "71340904", "address": "Baarova 360/24, Michle, 14000 Praha 4"}, "geometry": {"type": "Point", "coordinates": [14.453654730185074, 50.04990049927153]}, "type": "Feature"}, {"properties": {"name": "Mate\u0159sk\u00e1 \u0161kola a z\u00e1kladn\u00ed \u0161kola speci\u00e1ln\u00ed Diakonie \u010cCE Praha 4", "id": "71197630", "address": "V z\u00e1pol\u00ed 1250/21, Michle, 14100 Praha 4"}, "geometry": {"type": "Point", "coordinates": [14.467402524433787, 50.049146205005755]}, "type": "Feature"}, {"properties": {"name": "Mate\u0159sk\u00e1 \u0161kola a Z\u00e1kladn\u00ed \u0161kola U vrbi\u010dek s.r.o.", "id": "28999657", "address": "Gol\u010dova 1/4, Kunratice, 14800 Praha 4"}, "geometry": {"type": "Point", "coordinates": [14.482418204454117, 50.01226483065856]}, "type": "Feature"}, {"properties": {"name": "Mate\u0159sk\u00e1 \u0161kola, z\u00e1kladn\u00ed \u0161kola a gymn\u00e1zium sv. Augustina", "id": "71341340", "address": "Hornokr\u010dsk\u00e1 709/3, Kr\u010d, 14000 Praha 4"}, "geometry": {"type": "Point", "coordinates": [14.456780131752252, 50.0395111453625]}, "type": "Feature"}, {"properties": {"name": "Modr\u00fd kl\u00ed\u010d - z\u00e1kladn\u00ed \u0161kola speci\u00e1ln\u00ed a mate\u0159sk\u00e1 \u0161kola speci\u00e1ln\u00ed, o.p.s.", "id": "25765710", "address": "Smolkova 567/2, Kam\u00fdk, 14200 Praha 4"}, "geometry": {"type": "Point", "coordinates": [14.449054106114842, 50.00860924909645]}, "type": "Feature"}, {"properties": {"name": "Prvn\u00ed jazykov\u00e1 z\u00e1kladn\u00ed \u0161kola v Praze 4, Praha 4, Hor\u00e1\u010dkova 1100", "id": "60436221", "address": "Hor\u00e1\u010dkova 1100/14, Kr\u010d, 14000 Praha 4"}, "geometry": {"type": "Point", "coordinates": [14.436481680979508, 50.04662656349392]}, "type": "Feature"}, {"properties": {"name": "\u0160kola Kav\u010d\u00ed hory - Mate\u0159sk\u00e1 \u0161kola, Z\u00e1kladn\u00ed \u0161kola a St\u0159edn\u00ed odborn\u00e1 \u0161kola slu\u017eeb, Praha 4, K S\u00eddli\u0161ti 840", "id": "48134023", "address": "K s\u00eddli\u0161ti 840/2, Podol\u00ed, 14000 Praha 4"}, "geometry": {"type": "Point", "coordinates": [14.430683733947266, 50.04577165930403]}, "type": "Feature"}, {"properties": {"name": "\u0160kola M\u016fj Projekt - z\u00e1kladn\u00ed \u0161kola Praha, s.r.o.", "id": "24736490", "address": "Chomutovick\u00e1 1443/4, Chodov, 14900 Praha 4"}, "geometry": {"type": "Point", "coordinates": [14.514275159313973, 50.02353788627745]}, "type": "Feature"}, {"properties": {"name": "Z\u00e1kladn\u00ed \u0161kola a mate\u0159sk\u00e1 \u0161kola ANGEL v Praze 12", "id": "49367463", "address": "Angelovova 3183/15, Mod\u0159any, 14300 Praha 4"}, "geometry": {"type": "Point", "coordinates": [14.429924366071585, 50.00977208716553]}, "type": "Feature"}, {"properties": {"name": "Z\u00e1kladn\u00ed \u0161kola a mate\u0159sk\u00e1 \u0161kola Chodov, Praha 4, Kv\u011btnov\u00e9ho v\u00edt\u011bzstv\u00ed 57", "id": "61388343", "address": "Kv\u011btnov\u00e9ho v\u00edt\u011bzstv\u00ed 533/57, Chodov, 14900 Praha 4"}, "geometry": {"type": "Point", "coordinates": [14.51418989756534, 50.035056296515904]}, "type": "Feature"}, {"properties": {"name": "Z\u00e1kladn\u00ed \u0161kola a mate\u0159sk\u00e1 \u0161kola K Dol\u016fm v Praze 12", "id": "60437073", "address": "U Domu slu\u017eeb 29/2, Mod\u0159any, 14300 Praha 4"}, "geometry": {"type": "Point", "coordinates": [14.405734686415492, 50.00457070118817]}, "type": "Feature"}, {"properties": {"name": "Z\u00e1kladn\u00ed \u0161kola a mate\u0159sk\u00e1 \u0161kola Na Ber\u00e1nku v Praze 12", "id": "61386685", "address": "Pertoldova 3373/51, Mod\u0159any, 14300 Praha 4"}, "geometry": {"type": "Point", "coordinates": [14.432456625115561, 50.00125794755622]}, "type": "Feature"}, {"properties": {"name": "Z\u00e1kladn\u00ed \u0161kola a mate\u0159sk\u00e1 \u0161kola Smolkova v Praze 12", "id": "60437189", "address": "Smolkova 565, Kam\u00fdk, 14200 Praha 4"}, "geometry": {"type": "Point", "coordinates": [14.45113764080748, 50.00838333175093]}, "type": "Feature"}, {"properties": {"name": "Z\u00e1kladn\u00ed \u0161kola a Mate\u0159sk\u00e1 \u0161kola, Praha 4, Mend\u00edk\u016f 2", "id": "60435348", "address": "Mend\u00edk\u016f 1000/2, Michle, 14000 Praha 4"}, "geometry": {"type": "Point", "coordinates": [14.451094572622432, 50.058774553139024]}, "type": "Feature"}, {"properties": {"name": "Z\u00e1kladn\u00ed \u0161kola a Mate\u0159sk\u00e1 \u0161kola, Praha 4, Ohradn\u00ed 49", "id": "60435674", "address": "Ohradn\u00ed 1366/49, Michle, 14000 Praha 4"}, "geometry": {"type": "Point", "coordinates": [14.450103877491099, 50.05230234849506]}, "type": "Feature"}, {"properties": {"name": "Z\u00e1kladn\u00ed \u0161kola a Mate\u0159sk\u00e1 \u0161kola, Praha 4, Sdru\u017een\u00ed 1080", "id": "61384518", "address": "Sdru\u017een\u00ed 1080/2a, Nusle, 14000 Praha 4"}, "geometry": {"type": "Point", "coordinates": [14.443227888175407, 50.05486205923452]}, "type": "Feature"}, {"properties": {"name": "Z\u00e1kladn\u00ed \u0161kola a st\u0159edn\u00ed \u0161kola waldorfsk\u00e1", "id": "70922306", "address": "K\u0159ejpsk\u00e9ho 1501/12, Chodov, 14900 Praha 4"}, "geometry": {"type": "Point", "coordinates": [14.51626320605112, 50.0282376473926]}, "type": "Feature"}, {"properties": {"name": "Z\u00e1kladn\u00ed \u0161kola a St\u0159edn\u00ed \u0161kola, Praha 4, Kupeck\u00e9ho 576", "id": "48135411", "address": "Kupeck\u00e9ho 576/17, H\u00e1je, 14900 Praha 4"}, "geometry": {"type": "Point", "coordinates": [14.525133529559321, 50.03129729378149]}, "type": "Feature"}, {"properties": {"name": "Z\u00e1kladn\u00ed \u0161kola Campanus, Praha 4, J\u00edrovcovo n\u00e1m\u011bst\u00ed 1782", "id": "48132306", "address": "J\u00edrovcovo n\u00e1m\u011bst\u00ed 1782/1, Chodov, 14800 Praha 4"}, "geometry": {"type": "Point", "coordinates": [14.492065745462197, 50.023944810490924]}, "type": "Feature"}, {"properties": {"name": "Z\u00e1kladn\u00ed \u0161kola COMPASS s.r.o.", "id": "02046504", "address": "K Zelen\u00fdm domk\u016fm 178/38, Kunratice, 14800 Praha 4"}, "geometry": {"type": "Point", "coordinates": [14.470116739668278, 50.01683515178608]}, "type": "Feature"}, {"properties": {"name": "Z\u00e1kladn\u00ed \u0161kola Kl\u00ed\u010dek", "id": "25612778", "address": "Donovalsk\u00e1 1863/44, Chodov, 14900 Praha 4"}, "geometry": {"type": "Point", "coordinates": [14.49897625999715, 50.03650144851325]}, "type": "Feature"}, {"properties": {"name": "Z\u00e1kladn\u00ed \u0161kola Kunratice, Praha 4, P\u0159ed\u0161koln\u00ed 420", "id": "62931377", "address": "P\u0159ed\u0161koln\u00ed 420/5, Kunratice, 14800 Praha 4"}, "geometry": {"type": "Point", "coordinates": [14.479741289913312, 50.01152888147976]}, "type": "Feature"}, {"properties": {"name": "Z\u00e1kladn\u00ed \u0161kola March\u00e9 Montessori s.r.o.", "id": "04101383", "address": "Jeremenkova 233/79, Podol\u00ed, 14000 Praha 4"}, "geometry": {"type": "Point", "coordinates": [14.428990144918444, 50.04371756204129]}, "type": "Feature"}, {"properties": {"name": "Z\u00e1kladn\u00ed \u0161kola Meteorologick\u00e1", "id": "60437910", "address": "Meteorologick\u00e1 181/2, Libu\u0161, 14200 Praha 4"}, "geometry": {"type": "Point", "coordinates": [14.45616027795485, 50.00475727780222]}, "type": "Feature"}, {"properties": {"name": "Z\u00e1kladn\u00ed \u0161kola P\u00edsnick\u00e1 v Praze 12", "id": "61388254", "address": "P\u00edsnick\u00e1 760/11, Kam\u00fdk, 14200 Praha 4"}, "geometry": {"type": "Point", "coordinates": [14.441303440451057, 50.01893929728162]}, "type": "Feature"}, {"properties": {"name": "Z\u00e1kladn\u00ed \u0161kola profesora \u0160vejcara v Praze 12", "id": "61387363", "address": "Mr\u00e1\u010dkova 3090/2, Mod\u0159any, 14300 Praha 4"}, "geometry": {"type": "Point", "coordinates": [14.423328032797915, 50.01252777591475]}, "type": "Feature"}, {"properties": {"name": "Z\u00e1kladn\u00ed \u0161kola Rakovsk\u00e9ho v Praze 12", "id": "61386782", "address": "Rakovsk\u00e9ho 3136/1, Mod\u0159any, 14300 Praha 4"}, "geometry": {"type": "Point", "coordinates": [14.42383744565286, 50.00955310019071]}, "type": "Feature"}, {"properties": {"name": "Z\u00e1kladn\u00ed \u0161kola s roz\u0161\u00ed\u0159enou v\u00fdukou jazyk\u016f", "id": "60437936", "address": "Ladislava Co\u0148ka 40/3, P\u00edsnice, 14200 Praha 4"}, "geometry": {"type": "Point", "coordinates": [14.465641891075997, 49.992585353839885]}, "type": "Feature"}, {"properties": {"name": "Z\u00e1kladn\u00ed \u0161kola s roz\u0161\u00ed\u0159enou v\u00fdukou jazyk\u016f a s roz\u0161\u00ed\u0159enou v\u00fdukou t\u011blesn\u00e9 v\u00fdchovy, Praha 4, Filosofsk\u00e1 3", "id": "60435917", "address": "Jit\u0159n\u00ed 185/6, Hodkovi\u010dky, 14700 Praha 4"}, "geometry": {"type": "Point", "coordinates": [14.413524160867961, 50.024350705216975]}, "type": "Feature"}, {"properties": {"name": "Z\u00e1kladn\u00ed \u0161kola s roz\u0161\u00ed\u0159enou v\u00fdukou jazyk\u016f a s roz\u0161\u00ed\u0159enou v\u00fdukou t\u011blesn\u00e9 v\u00fdchovy, Praha 4, Filosofsk\u00e1 3", "id": "60435917", "address": "Filosofsk\u00e1 1166/3, Bran\u00edk, 14200 Praha 4"}, "geometry": {"type": "Point", "coordinates": [14.430489073680189, 50.02322650264263]}, "type": "Feature"}, {"properties": {"name": "Z\u00e1kladn\u00ed \u0161kola s roz\u0161\u00ed\u0159enou v\u00fdukou jazyk\u016f, Praha 4, Jeremenkova 1003", "id": "47611413", "address": "Jeremenkova 1003/66a, Bran\u00edk, 14700 Praha 4"}, "geometry": {"type": "Point", "coordinates": [14.423391630113732, 50.043169970856546]}, "type": "Feature"}, {"properties": {"name": "Z\u00e1kladn\u00ed \u0161kola s roz\u0161\u00ed\u0159enou v\u00fdukou jazyk\u016f, Praha 4, K Mil\u00ed\u010dovu 674", "id": "61388424", "address": "K Mil\u00ed\u010dovu 674/2, H\u00e1je, 14900 Praha 4"}, "geometry": {"type": "Point", "coordinates": [14.53481501927825, 50.0280611777144]}, "type": "Feature"}, {"properties": {"name": "Z\u00e1kladn\u00ed \u0161kola s roz\u0161\u00ed\u0159enou v\u00fdukou matematiky a p\u0159\u00edrodov\u011bdn\u00fdch p\u0159edm\u011bt\u016f, Praha 4, Na Planin\u011b 1393", "id": "60435909", "address": "Na planin\u011b 1393/13, Kr\u010d, 14000 Praha 4"}, "geometry": {"type": "Point", "coordinates": [14.432776981164476, 50.03957569719602]}, "type": "Feature"}, {"properties": {"name": "Z\u00e1kladn\u00ed \u0161kola T. G. Masaryka v Praze 12", "id": "49367609", "address": "Mod\u0159ansk\u00e1 1375/10a, Mod\u0159any, 14300 Praha 4"}, "geometry": {"type": "Point", "coordinates": [14.404293539221356, 50.00761077354773]}, "type": "Feature"}, {"properties": {"name": "Z\u00e1kladn\u00ed \u0161kola U Kr\u010dsk\u00e9ho lesa, Praha 4, J\u00e1no\u0161\u00edkova 1320", "id": "47611642", "address": "J\u00e1no\u0161\u00edkova 1320/2, Kr\u010d, 14200 Praha 4"}, "geometry": {"type": "Point", "coordinates": [14.459150725128668, 50.02216338785166]}, "type": "Feature"}, {"properties": {"name": "Z\u00e1kladn\u00ed \u0161kola Wonderland Academy s.r.o.", "id": "28895410", "address": "M\u00edlov\u00e1 697/2a, Libu\u0161, 14200 Praha 4"}, "geometry": {"type": "Point", "coordinates": [14.468094959083817, 50.00712757815311]}, "type": "Feature"}, {"properties": {"name": "Z\u00e1kladn\u00ed \u0161kola Z\u00e1rubova v Praze 12", "id": "60437197", "address": "Z\u00e1rubova 977/17, Kam\u00fdk, 14200 Praha 4"}, "geometry": {"type": "Point", "coordinates": [14.432764247575196, 50.01429140196942]}, "type": "Feature"}, {"properties": {"name": "Z\u00e1kladn\u00ed \u0161kola, Praha 4, B\u00edtovsk\u00e1 1", "id": "45242810", "address": "B\u00edtovsk\u00e1 1246/1, Michle, 14000 Praha 4"}, "geometry": {"type": "Point", "coordinates": [14.450548925207316, 50.04674468331059]}, "type": "Feature"}, {"properties": {"name": "Z\u00e1kladn\u00ed \u0161kola, Praha 4, Boleslavova 1", "id": "60446170", "address": "Boleslavova 250/1, Nusle, 14000 Praha 4"}, "geometry": {"type": "Point", "coordinates": [14.43401720251587, 50.06394905459543]}, "type": "Feature"}, {"properties": {"name": "Z\u00e1kladn\u00ed \u0161kola, Praha 4, Donovalsk\u00e1 1684", "id": "61388408", "address": "Donovalsk\u00e1 1684/40, Chodov, 14900 Praha 4"}, "geometry": {"type": "Point", "coordinates": [14.503194666415345, 50.03693771522899]}, "type": "Feature"}, {"properties": {"name": "Z\u00e1kladn\u00ed \u0161kola, Praha 4, J\u00edlovsk\u00e1 1100", "id": "61384216", "address": "J\u00edlovsk\u00e1 1100/16, Bran\u00edk, 14200 Praha 4"}, "geometry": {"type": "Point", "coordinates": [14.429200332085006, 50.02568608631798]}, "type": "Feature"}, {"properties": {"name": "Z\u00e1kladn\u00ed \u0161kola, Praha 4, Ji\u017en\u00ed IV., 10", "id": "61384828", "address": "Ji\u017en\u00ed IV 1750/10, Z\u00e1b\u011bhlice, 14100 Praha 4"}, "geometry": {"type": "Point", "coordinates": [14.483365308347395, 50.045533035377304]}, "type": "Feature"}, {"properties": {"name": "Z\u00e1kladn\u00ed \u0161kola, Praha 4, Ke Kate\u0159ink\u00e1m 1400", "id": "61388483", "address": "Ke Kate\u0159ink\u00e1m 1400/2, Chodov, 14900 Praha 4"}, "geometry": {"type": "Point", "coordinates": [14.51880811155876, 50.023360016963736]}, "type": "Feature"}, {"properties": {"name": "Z\u00e1kladn\u00ed \u0161kola, Praha 4, K\u0159esomyslova 2", "id": "61386201", "address": "K\u0159esomyslova 724/2, Nusle, 14000 Praha 4"}, "geometry": {"type": "Point", "coordinates": [14.43403155240773, 50.06457735961483]}, "type": "Feature"}, {"properties": {"name": "Z\u00e1kladn\u00ed \u0161kola, Praha 4, Kv\u011btnov\u00e9ho v\u00edt\u011bzstv\u00ed 1554", "id": "47611863", "address": "Kv\u011btnov\u00e9ho v\u00edt\u011bzstv\u00ed 1554/54, Chodov, 14900 Praha 4"}, "geometry": {"type": "Point", "coordinates": [14.517294768287826, 50.03487205457171]}, "type": "Feature"}, {"properties": {"name": "Z\u00e1kladn\u00ed \u0161kola, Praha 4, Mendelova 550", "id": "61388530", "address": "Mendelova 550/2, H\u00e1je, 14900 Praha 4"}, "geometry": {"type": "Point", "coordinates": [14.531782382940136, 50.03373935663469]}, "type": "Feature"}, {"properties": {"name": "Z\u00e1kladn\u00ed \u0161kola, Praha 4, Mikulova 1594", "id": "61388459", "address": "Mikulova 1594/4, Chodov, 14900 Praha 4"}, "geometry": {"type": "Point", "coordinates": [14.51336412576475, 50.03001883910394]}, "type": "Feature"}, {"properties": {"name": "Z\u00e1kladn\u00ed \u0161kola, Praha 4, Na Chodovci 54", "id": "61384704", "address": "Na Chodovci 2700/54, Z\u00e1b\u011bhlice, 14100 Praha 4"}, "geometry": {"type": "Point", "coordinates": [14.48915765014607, 50.04955708962993]}, "type": "Feature"}, {"properties": {"name": "Z\u00e1kladn\u00ed \u0161kola, Praha 4, Na L\u00ed\u0161e 16", "id": "48132900", "address": "Na l\u00ed\u0161e 936/16, Michle, 14100 Praha 4"}, "geometry": {"type": "Point", "coordinates": [14.465251080986874, 50.04762323653364]}, "type": "Feature"}, {"properties": {"name": "Z\u00e1kladn\u00ed \u0161kola, Praha 4, Nedv\u011bdovo n\u00e1m\u011bst\u00ed 140", "id": "61384224", "address": "Nedv\u011bdovo n\u00e1m\u011bst\u00ed 140/13, Podol\u00ed, 14700 Praha 4"}, "geometry": {"type": "Point", "coordinates": [14.421542086352412, 50.05754458702427]}, "type": "Feature"}, {"properties": {"name": "Z\u00e1kladn\u00ed \u0161kola, Praha 4, Plam\u00ednkov\u00e9 2", "id": "60435640", "address": "Plam\u00ednkov\u00e9 1593/2, Nusle, 14000 Praha 4"}, "geometry": {"type": "Point", "coordinates": [14.43577014669451, 50.052345436952386]}, "type": "Feature"}, {"properties": {"name": "Z\u00e1kladn\u00ed \u0161kola, Praha 4, Pol\u00e1\u010dkova 1067", "id": "61384755", "address": "Pol\u00e1\u010dkova 1067/3, Kr\u010d, 14000 Praha 4"}, "geometry": {"type": "Point", "coordinates": [14.447240777028965, 50.04307734216153]}, "type": "Feature"}, {"properties": {"name": "Z\u00e1kladn\u00ed \u0161kola, Praha 4, Po\u0161epn\u00e9ho n\u00e1m\u011bst\u00ed 2022", "id": "61388432", "address": "Po\u0161epn\u00e9ho n\u00e1m\u011bst\u00ed 2022/3, Chodov, 14800 Praha 4"}, "geometry": {"type": "Point", "coordinates": [14.481504528512348, 50.03159721312057]}, "type": "Feature"}, {"properties": {"name": "Z\u00e1kladn\u00ed \u0161kola, Praha 4, Ru\u017einovsk\u00e1 2017", "id": "60446161", "address": "Ru\u017einovsk\u00e1 2017/20, Kr\u010d, 14200 Praha 4"}, "geometry": {"type": "Point", "coordinates": [14.456993770822713, 50.02580159917822]}, "type": "Feature"}, {"properties": {"name": "Z\u00e1kladn\u00ed \u0161kola, Praha 4, \u0160koln\u00ed 700", "id": "60435500", "address": "\u0160koln\u00ed 700/5, Bran\u00edk, 14700 Praha 4"}, "geometry": {"type": "Point", "coordinates": [14.413724986341178, 50.03745907471839]}, "type": "Feature"}, {"properties": {"name": "Z\u00e1kladn\u00ed \u0161kola, Praha 4, T\u00e1borsk\u00e1 45", "id": "47611456", "address": "T\u00e1borsk\u00e1 421/45, Nusle, 14000 Praha 4"}, "geometry": {"type": "Point", "coordinates": [14.439293461887303, 50.0629038835114]}, "type": "Feature"}, {"properties": {"name": "Z\u00e1kladn\u00ed \u0161kola, Praha 4, V Ladech 6", "id": "60447354", "address": "V ladech 6, \u0160eberov, 14900 Praha 4"}, "geometry": {"type": "Point", "coordinates": [14.510486335188824, 50.01249415635242]}, "type": "Feature"}, {"properties": {"name": "Anglofonn\u00ed z\u00e1kladn\u00ed \u0161kola, z.\u00fa.", "id": "04303881", "address": "Jansk\u00e9ho 2189/18, Stod\u016flky, 15500 Praha 5"}, "geometry": {"type": "Point", "coordinates": [14.343852977411881, 50.038780693395395]}, "type": "Feature"}, {"properties": {"name": "Fakultn\u00ed z\u00e1kladn\u00ed \u0161kola a mate\u0159sk\u00e1 \u0161kola Barrandov II p\u0159i PedF UK, Praha 5 - Hlubo\u010depy, V Rem\u00edzku 7/919", "id": "69781745", "address": "V rem\u00edzku 919/7, Hlubo\u010depy, 15200 Praha 5"}, "geometry": {"type": "Point", "coordinates": [14.369216842539709, 50.0282079304909]}, "type": "Feature"}, {"properties": {"name": "Fakultn\u00ed z\u00e1kladn\u00ed \u0161kola Pedagogick\u00e9 fakulty UK, Praha 13, Mezi \u0160kolami 2322", "id": "61385531", "address": "Mezi \u0161kolami 2322/1, Stod\u016flky, 15800 Praha 5"}, "geometry": {"type": "Point", "coordinates": [14.34488511539345, 50.0525840941433]}, "type": "Feature"}, {"properties": {"name": "Fakultn\u00ed z\u00e1kladn\u00ed \u0161kola Pedagogick\u00e9 fakulty UK, Praha 13, Tr\u00e1vn\u00ed\u010dkova 1744", "id": "68407904", "address": "Tr\u00e1vn\u00ed\u010dkova 1744/4, Stod\u016flky, 15500 Praha 5"}, "geometry": {"type": "Point", "coordinates": [14.320048321466238, 50.04355711504797]}, "type": "Feature"}, {"properties": {"name": "Fakultn\u00ed z\u00e1kladn\u00ed \u0161kola profesora Otokara Chlupa Pedagogick\u00e9 fakulty UK, Praha 13, Fingerova 2186", "id": "61385620", "address": "Fingerova 2186/17, Stod\u016flky, 15800 Praha 5"}, "geometry": {"type": "Point", "coordinates": [14.347310640669775, 50.048812600847064]}, "type": "Feature"}, {"properties": {"name": "Fakultn\u00ed z\u00e1kladn\u00ed \u0161kola p\u0159i Pedagogick\u00e9 fakult\u011b UK, Praha 13, Brdi\u010dkova 1878", "id": "67799612", "address": "Brdi\u010dkova 1878/2, Stod\u016flky, 15500 Praha 5"}, "geometry": {"type": "Point", "coordinates": [14.332392627604248, 50.04279973374945]}, "type": "Feature"}, {"properties": {"name": "Fakultn\u00ed z\u00e1kladn\u00ed \u0161kola s roz\u0161\u00ed\u0159enou v\u00fdukou jazyk\u016f p\u0159i PedF UK, Praha 5 - Sm\u00edchov, Drtinova 1/1861", "id": "69781869", "address": "Drtinova 1861/1, Sm\u00edchov, 15000 Praha 5"}, "geometry": {"type": "Point", "coordinates": [14.4009697033352, 50.07538657059221]}, "type": "Feature"}, {"properties": {"name": "Mate\u0159sk\u00e1 \u0161kola a z\u00e1kladn\u00ed \u0161kola speci\u00e1ln\u00ed Diakonie \u010cCE Praha 5", "id": "71197613", "address": "Vlachova 1502/20, Stod\u016flky, 15500 Praha 5"}, "geometry": {"type": "Point", "coordinates": [14.309648767474549, 50.049046834574845]}, "type": "Feature"}, {"properties": {"name": "Mate\u0159sk\u00e1 \u0161kola a z\u00e1kladn\u00ed \u0161kola speci\u00e1ln\u00ed Diakonie \u010cCE Praha 5", "id": "71197613", "address": "Saratovsk\u00e1 3392/8a, Stra\u0161nice, 10000 Praha 10"}, "geometry": {"type": "Point", "coordinates": [14.493186883131255, 50.075319758649414]}, "type": "Feature"}, {"properties": {"name": "Montessori \u0161koly And\u00edlek - mate\u0159sk\u00e1 \u0161kola a z\u00e1kladn\u00ed \u0161kola, o.p.s.", "id": "28414756", "address": "Pod radnic\u00ed 152/3, Ko\u0161\u00ed\u0159e, 15000 Praha 5"}, "geometry": {"type": "Point", "coordinates": [14.382101821158765, 50.07046173469756]}, "type": "Feature"}, {"properties": {"name": "Soukrom\u00e1 mate\u0159sk\u00e1 \u0161kola a z\u00e1kladn\u00ed \u0161kola Petrkl\u00ed\u010d", "id": "71340858", "address": "n\u00e1m\u011bst\u00ed Osvoboditel\u016f 1368/27, Radot\u00edn, 15300 Praha 5"}, "geometry": {"type": "Point", "coordinates": [14.35675332933746, 49.98522247659356]}, "type": "Feature"}, {"properties": {"name": "St\u0159edn\u00ed \u0161kola, z\u00e1kladn\u00ed \u0161kola a mate\u0159sk\u00e1 \u0161kola pro sluchov\u011b posti\u017een\u00e9, Praha 5, Hole\u010dkova 4", "id": "48134368", "address": "Hole\u010dkova 104/4, Sm\u00edchov, 15000 Praha 5"}, "geometry": {"type": "Point", "coordinates": [14.39748515053937, 50.07635522725108]}, "type": "Feature"}, {"properties": {"name": "St\u0159edn\u00ed \u0161kola, Z\u00e1kladn\u00ed \u0161kola a Mate\u0159sk\u00e1 \u0161kola pro sluchov\u011b posti\u017een\u00e9, Praha 5, V\u00fdmolova 169", "id": "48134058", "address": "V\u00fdmolova 169/2, Radlice, 15000 Praha 5"}, "geometry": {"type": "Point", "coordinates": [14.393032654878674, 50.056743890198085]}, "type": "Feature"}, {"properties": {"name": "Tyr\u0161ova z\u00e1kladn\u00ed \u0161kola a mate\u0159sk\u00e1 \u0161kola Praha 5 - Jinonice, U Tyr\u0161ovy \u0161koly 1/430", "id": "70107661", "address": "U Tyr\u0161ovy \u0161koly 430/3, Jinonice, 15800 Praha 5"}, "geometry": {"type": "Point", "coordinates": [14.368950253842682, 50.05336415804871]}, "type": "Feature"}, {"properties": {"name": "V\u011aDA z\u00e1kladn\u00ed \u0161kola a jazykov\u00e1 \u0161kola s pr\u00e1vem st\u00e1tn\u00ed jazykov\u00e9 zkou\u0161ky s.r.o.", "id": "25771159", "address": "Legerova 1878/5, Nov\u00e9 M\u011bsto, 12000 Praha 2"}, "geometry": {"type": "Point", "coordinates": [14.430758576090934, 50.07000061419025]}, "type": "Feature"}, {"properties": {"name": "Z\u00e1kladn\u00ed \u0161kola a mate\u0159sk\u00e1 \u0161kola Barrandov, Praha 5 - Hlubo\u010depy, Chaplinovo n\u00e1m. 1/615", "id": "65993527", "address": "Chaplinovo n\u00e1m\u011bst\u00ed 615/1, Hlubo\u010depy, 15200 Praha 5"}, "geometry": {"type": "Point", "coordinates": [14.378913166535499, 50.037298778602164]}, "type": "Feature"}, {"properties": {"name": "Z\u00e1kladn\u00ed \u0161kola a mate\u0159sk\u00e1 \u0161kola Praha - Slivenec, Ke Sm\u00edchovu 16", "id": "70108391", "address": "Ke Sm\u00edchovu 1146/16, Hlubo\u010depy, 15400 Praha 5"}, "geometry": {"type": "Point", "coordinates": [14.375398603912505, 50.027925926700014]}, "type": "Feature"}, {"properties": {"name": "Z\u00e1kladn\u00ed \u0161kola a mate\u0159sk\u00e1 \u0161kola Praha 5 - Ko\u0161\u00ed\u0159e, Weberova 1/1090", "id": "69781877", "address": "Weberova 1090/1, Ko\u0161\u00ed\u0159e, 15000 Praha 5"}, "geometry": {"type": "Point", "coordinates": [14.356292640119696, 50.07330958522419]}, "type": "Feature"}, {"properties": {"name": "Z\u00e1kladn\u00ed \u0161kola a mate\u0159sk\u00e1 \u0161kola Praha 5 - Radlice, Radlick\u00e1 140/115", "id": "69781931", "address": "Radlick\u00e1 115/140, Radlice, 15000 Praha 5"}, "geometry": {"type": "Point", "coordinates": [14.393100770057806, 50.05978661020788]}, "type": "Feature"}, {"properties": {"name": "Z\u00e1kladn\u00ed \u0161kola a mate\u0159sk\u00e1 \u0161kola Praha 5 - Sm\u00edchov, Grafick\u00e1 13/1060", "id": "44851987", "address": "Grafick\u00e1 1060/13, Sm\u00edchov, 15000 Praha 5"}, "geometry": {"type": "Point", "coordinates": [14.394966769866734, 50.073114755309184]}, "type": "Feature"}, {"properties": {"name": "Z\u00e1kladn\u00ed \u0161kola a mate\u0159sk\u00e1 \u0161kola Praha 5 - Sm\u00edchov, Ko\u0159ensk\u00e9ho 10/760", "id": "70107416", "address": "Ko\u0159ensk\u00e9ho 760/10, Sm\u00edchov, 15000 Praha 5"}, "geometry": {"type": "Point", "coordinates": [14.406698230125794, 50.07620657409464]}, "type": "Feature"}, {"properties": {"name": "Z\u00e1kladn\u00ed \u0161kola a mate\u0159sk\u00e1 \u0161kola Praha 5 - Sm\u00edchov, Ko\u0159ensk\u00e9ho 10/760", "id": "70107416", "address": "Pod \u017dvahovem 463/21b, Hlubo\u010depy, 15200 Praha 5"}, "geometry": {"type": "Point", "coordinates": [14.400877317261642, 50.04192520597733]}, "type": "Feature"}, {"properties": {"name": "Z\u00e1kladn\u00ed \u0161kola a mate\u0159sk\u00e1 \u0161kola Praha 5 - Sm\u00edchov, U Santo\u0161ky 1/1007", "id": "69781907", "address": "U Santo\u0161ky 1007/1, Sm\u00edchov, 15000 Praha 5"}, "geometry": {"type": "Point", "coordinates": [14.398889495804386, 50.06601469709307]}, "type": "Feature"}, {"properties": {"name": "Z\u00e1kladn\u00ed \u0161kola a Mate\u0159sk\u00e1 \u0161kola, Praha 5 - Zli\u010d\u00edn, Neda\u0161ovsk\u00e1 328", "id": "70845905", "address": "Neda\u0161ovsk\u00e1 328/35, Zli\u010d\u00edn, 15521 Praha 5"}, "geometry": {"type": "Point", "coordinates": [14.288388016194101, 50.058920996507595]}, "type": "Feature"}, {"properties": {"name": "Z\u00e1kladn\u00ed \u0161kola Charlotty Masarykov\u00e9, Praha 5 - Velk\u00e1 Chuchle", "id": "70107521", "address": "Starochuchelsk\u00e1 240/38, Velk\u00e1 Chuchle, 15900 Praha 5"}, "geometry": {"type": "Point", "coordinates": [14.38168416103625, 50.012424388972974]}, "type": "Feature"}, {"properties": {"name": "Z\u00e1kladn\u00ed \u0161kola Lu\u017einy, Praha 5, Tr\u00e1vn\u00ed\u010dkova 1743", "id": "70107084", "address": "Tr\u00e1vn\u00ed\u010dkova 1743/2, Stod\u016flky, 15500 Praha 5"}, "geometry": {"type": "Point", "coordinates": [14.319800505399773, 50.043677366758764]}, "type": "Feature"}, {"properties": {"name": "Z\u00e1kladn\u00ed \u0161kola Praha - Radot\u00edn", "id": "70874263", "address": "Lou\u010dansk\u00e1 1112/3, Radot\u00edn, 15300 Praha 5"}, "geometry": {"type": "Point", "coordinates": [14.359005775484189, 49.98025914758661]}, "type": "Feature"}, {"properties": {"name": "Z\u00e1kladn\u00ed \u0161kola Praha 5 - Ko\u0161\u00ed\u0159e, Nepomuck\u00e1 1/139", "id": "69781761", "address": "Nepomuck\u00e1 139/1, Ko\u0161\u00ed\u0159e, 15000 Praha 5"}, "geometry": {"type": "Point", "coordinates": [14.3670342213122, 50.069099314462925]}, "type": "Feature"}, {"properties": {"name": "Z\u00e1kladn\u00ed \u0161kola Praha 5 - Ko\u0161\u00ed\u0159e, Nepomuck\u00e1 1/139", "id": "69781761", "address": "Ben\u00ed\u0161kov\u00e9 1258/1, Ko\u0161\u00ed\u0159e, 15000 Praha 5"}, "geometry": {"type": "Point", "coordinates": [14.369178107322112, 50.06357671614589]}, "type": "Feature"}, {"properties": {"name": "Z\u00e1kladn\u00ed \u0161kola Praha 5 - \u0158eporyje", "id": "47611219", "address": "Od \u0161koly 596/5, \u0158eporyje, 15500 Praha 5"}, "geometry": {"type": "Point", "coordinates": [14.309128037029135, 50.030284970018435]}, "type": "Feature"}, {"properties": {"name": "Z\u00e1kladn\u00ed \u0161kola Praha 5 - Sm\u00edchov, Podb\u011blohorsk\u00e1 26/720", "id": "69781885", "address": "Podb\u011blohorsk\u00e1 720/26, Sm\u00edchov, 15000 Praha 5"}, "geometry": {"type": "Point", "coordinates": [14.378223144731525, 50.07329069576602]}, "type": "Feature"}, {"properties": {"name": "Z\u00e1kladn\u00ed \u0161kola Praha-Lipence", "id": "70108145", "address": "\u010cerno\u0161ick\u00e1 168, Lipence, 15531 Praha 5"}, "geometry": {"type": "Point", "coordinates": [14.35698485565355, 49.960894560128395]}, "type": "Feature"}, {"properties": {"name": "Z\u00e1kladn\u00ed \u0161kola pro \u017e\u00e1ky se specifick\u00fdmi poruchami chov\u00e1n\u00ed", "id": "67774172", "address": "Na Zl\u00edchov\u011b 254/19, Hlubo\u010depy, 15200 Praha 5"}, "geometry": {"type": "Point", "coordinates": [14.408098379090912, 50.04721392247852]}, "type": "Feature"}, {"properties": {"name": "Z\u00e1kladn\u00ed \u0161kola s roz\u0161\u00ed\u0159enou v\u00fdukou jazyk\u016f, Praha 13, Bronzov\u00e1 2027", "id": "62934368", "address": "Bronzov\u00e1 2027/35, Stod\u016flky, 15500 Praha 5"}, "geometry": {"type": "Point", "coordinates": [14.328116345788883, 50.04521693877254]}, "type": "Feature"}, {"properties": {"name": "Z\u00e1kladn\u00ed \u0161kola Vladislava Van\u010dury, Praha - Zbraslav", "id": "61386961", "address": "Hauptova 591, Zbraslav, 15600 Praha 5"}, "geometry": {"type": "Point", "coordinates": [14.394183723139134, 49.97444841233744]}, "type": "Feature"}, {"properties": {"name": "Z\u00e1kladn\u00ed \u0161kola waldorfsk\u00e1, Praha 5 - Jinonice, Butovick\u00e1 228/9", "id": "65990722", "address": "Butovick\u00e1 228/9, Jinonice, 15800 Praha 5"}, "geometry": {"type": "Point", "coordinates": [14.367897430314938, 50.049320109985246]}, "type": "Feature"}, {"properties": {"name": "Z\u00e1kladn\u00ed \u0161kola, Praha 13, Jansk\u00e9ho 2189", "id": "62934309", "address": "Jansk\u00e9ho 2189/18, Stod\u016flky, 15500 Praha 5"}, "geometry": {"type": "Point", "coordinates": [14.343852977411881, 50.038780693395395]}, "type": "Feature"}, {"properties": {"name": "Z\u00e1kladn\u00ed \u0161kola, Praha 13, Klausova 2450", "id": "67365744", "address": "Klausova 2450/2, Stod\u016flky, 15500 Praha 5"}, "geometry": {"type": "Point", "coordinates": [14.339045971776933, 50.034827596982886]}, "type": "Feature"}, {"properties": {"name": "Z\u00e1kladn\u00ed \u0161kola, Praha 13, Kuncova 1580", "id": "67365213", "address": "Kuncova 1580/1, Stod\u016flky, 15500 Praha 5"}, "geometry": {"type": "Point", "coordinates": [14.31307130272414, 50.05008534736571]}, "type": "Feature"}, {"properties": {"name": "Z\u00e1kladn\u00ed \u0161kola, Praha 13, Ml\u00e1d\u00ed 135", "id": "70101078", "address": "Ml\u00e1d\u00ed 135/4, Stod\u016flky, 15500 Praha 5"}, "geometry": {"type": "Point", "coordinates": [14.320952287444308, 50.05044336964336]}, "type": "Feature"}, {"properties": {"name": "Z\u00e1kladn\u00ed \u0161kola, Praha 13, Mohylov\u00e1 1963", "id": "61385611", "address": "Mohylov\u00e1 1963/2, Stod\u016flky, 15500 Praha 5"}, "geometry": {"type": "Point", "coordinates": [14.333883420254631, 50.04376100376543]}, "type": "Feature"}, {"properties": {"name": "Z\u00e1kladn\u00ed \u0161kola, Praha 5, Pod Radnic\u00ed 5", "id": "70845964", "address": "n\u00e1m\u011bst\u00ed Osvoboditel\u016f 1368/27, Radot\u00edn, 15300 Praha 5"}, "geometry": {"type": "Point", "coordinates": [14.35675332933746, 49.98522247659356]}, "type": "Feature"}, {"properties": {"name": "Z\u00e1kladn\u00ed \u0161kola, Praha 5, Pod Radnic\u00ed 5", "id": "70845964", "address": "Pod radnic\u00ed 315/5, Ko\u0161\u00ed\u0159e, 15000 Praha 5"}, "geometry": {"type": "Point", "coordinates": [14.382046064558505, 50.0706985764675]}, "type": "Feature"}, {"properties": {"name": "Z\u00e1kladn\u00ed \u0161kola, Praha 5, Pod Radnic\u00ed 5", "id": "70845964", "address": "V Cibulk\u00e1ch 1265/26, Ko\u0161\u00ed\u0159e, 15000 Praha 5"}, "geometry": {"type": "Point", "coordinates": [14.36427250357972, 50.06530829298352]}, "type": "Feature"}, {"properties": {"name": "Za\u0159\u00edzen\u00ed pro d\u011bti - cizince, diagnostick\u00fd \u00fastav, st\u0159edisko v\u00fdchovn\u00e9 p\u00e9\u010de a z\u00e1kladn\u00ed \u0161kola, Praha 5, Radlick\u00e1 30", "id": "86595971", "address": "Radlick\u00e1 795/30, Sm\u00edchov, 15000 Praha 5"}, "geometry": {"type": "Point", "coordinates": [14.402065914121009, 50.067874725467085]}, "type": "Feature"}, {"properties": {"name": "Global Minded mate\u0159sk\u00e1 \u0161kola a z\u00e1kladn\u00ed \u0161kola s.r.o.", "id": "05317266", "address": "V Podbab\u011b 40/29, Dejvice, 16000 Praha 6"}, "geometry": {"type": "Point", "coordinates": [14.390452107373921, 50.123012047324515]}, "type": "Feature"}, {"properties": {"name": "Soukrom\u00e1 z\u00e1kladn\u00ed \u0161kola Cesta k \u00fasp\u011bchu v Praze, s.r.o.", "id": "27141284", "address": "B\u011blohorsk\u00e1 226/103, B\u0159evnov, 16900 Praha 6"}, "geometry": {"type": "Point", "coordinates": [14.366170627325735, 50.08396994197284]}, "type": "Feature"}, {"properties": {"name": "Univerzitn\u00ed z\u00e1kladn\u00ed \u0161kola a mate\u0159sk\u00e1 \u0161kola Lv\u00ed\u010data", "id": "71341315", "address": "B\u00edl\u00e1 2571/6, Dejvice, 16000 Praha 6"}, "geometry": {"type": "Point", "coordinates": [14.388597836576029, 50.10582564523856]}, "type": "Feature"}, {"properties": {"name": "Z\u00e1kladn\u00ed \u0161kola a Mate\u0159sk\u00e1 \u0161kola Anton\u00edna \u010cerm\u00e1ka, Praha 6", "id": "48133850", "address": "Anton\u00edna \u010cerm\u00e1ka 1022/6, Bubene\u010d, 16000 Praha 6"}, "geometry": {"type": "Point", "coordinates": [14.39784922062696, 50.10704264713158]}, "type": "Feature"}, {"properties": {"name": "Z\u00e1kladn\u00ed \u0161kola a Mate\u0159sk\u00e1 \u0161kola \u010cerven\u00fd vrch, Praha 6, Al\u017e\u00edrsk\u00e1 26", "id": "48133809", "address": "Al\u017e\u00edrsk\u00e1 680/26, Vokovice, 16000 Praha 6"}, "geometry": {"type": "Point", "coordinates": [14.354252012472003, 50.095391923173125]}, "type": "Feature"}, {"properties": {"name": "Z\u00e1kladn\u00ed \u0161kola a Mate\u0159sk\u00e1 \u0161kola Emy Destinnov\u00e9, Praha 6, n\u00e1m\u011bst\u00ed Svobody 3/930", "id": "48133892", "address": "n\u00e1m\u011bst\u00ed Svobody 930/3, Bubene\u010d, 16000 Praha 6"}, "geometry": {"type": "Point", "coordinates": [14.4007584438395, 50.10100405020635]}, "type": "Feature"}, {"properties": {"name": "Z\u00e1kladn\u00ed \u0161kola a Mate\u0159sk\u00e1 \u0161kola J. A. Komensk\u00e9ho, Praha 6, U D\u011blnick\u00e9ho cvi\u010di\u0161t\u011b 1", "id": "48133817", "address": "U d\u011blnick\u00e9ho cvi\u010di\u0161t\u011b 1100/1, B\u0159evnov, 16900 Praha 6"}, "geometry": {"type": "Point", "coordinates": [14.367036840515405, 50.08693715453968]}, "type": "Feature"}, {"properties": {"name": "Z\u00e1kladn\u00ed \u0161kola a Mate\u0159sk\u00e1 \u0161kola Pet\u0159iny - jih, Praha 6, \u0160antrochova 2", "id": "48133779", "address": "\u0160antrochova 1800/2, B\u0159evnov, 16200 Praha 6"}, "geometry": {"type": "Point", "coordinates": [14.348725332204115, 50.08782099003326]}, "type": "Feature"}, {"properties": {"name": "Z\u00e1kladn\u00ed \u0161kola a Mate\u0159sk\u00e1 \u0161kola T. G. Masaryka, Praha 6, n\u00e1m\u011bst\u00ed \u010cesk\u00e9ho povst\u00e1n\u00ed 6", "id": "49624521", "address": "n\u00e1m\u011bst\u00ed \u010cesk\u00e9ho povst\u00e1n\u00ed 511/6, Ruzyn\u011b, 16100 Praha 6"}, "geometry": {"type": "Point", "coordinates": [14.316735479937902, 50.0837927233056]}, "type": "Feature"}, {"properties": {"name": "Z\u00e1kladn\u00ed \u0161kola a Mate\u0159sk\u00e1 \u0161kola T. G. Masaryka, Praha 6, n\u00e1m\u011bst\u00ed \u010cesk\u00e9ho povst\u00e1n\u00ed 6", "id": "49624521", "address": "B\u011blohorsk\u00e1 162/174, B\u0159evnov, 16900 Praha 6"}, "geometry": {"type": "Point", "coordinates": [14.33095334666009, 50.07614974742721]}, "type": "Feature"}, {"properties": {"name": "Z\u00e1kladn\u00ed \u0161kola a mate\u0159sk\u00e1 \u0161kola, Praha - Nebu\u0161ice", "id": "49624539", "address": "Nebu\u0161ick\u00e1 369, Nebu\u0161ice, 16400 Praha 6"}, "geometry": {"type": "Point", "coordinates": [14.330591856100074, 50.11141181987994]}, "type": "Feature"}, {"properties": {"name": "Z\u00e1kladn\u00ed \u0161kola a Mate\u0159sk\u00e1 \u0161kola, Praha 6, B\u00edl\u00e1 1", "id": "48133833", "address": "B\u00edl\u00e1 1784/1, Dejvice, 16000 Praha 6"}, "geometry": {"type": "Point", "coordinates": [14.387291015294698, 50.10537335768189]}, "type": "Feature"}, {"properties": {"name": "Z\u00e1kladn\u00ed \u0161kola a Mate\u0159sk\u00e1 \u0161kola, Praha 6, Na Dlouh\u00e9m l\u00e1nu 43", "id": "68407122", "address": "Na dlouh\u00e9m l\u00e1nu 555/43, Vokovice, 16000 Praha 6"}, "geometry": {"type": "Point", "coordinates": [14.360369049267435, 50.09550255786078]}, "type": "Feature"}, {"properties": {"name": "Z\u00e1kladn\u00ed \u0161kola a Mate\u0159sk\u00e1 \u0161kola, Praha 6, n\u00e1m\u011bst\u00ed Svobody 2", "id": "67798543", "address": "n\u00e1m\u011bst\u00ed Svobody 930/3, Bubene\u010d, 16000 Praha 6"}, "geometry": {"type": "Point", "coordinates": [14.4007584438395, 50.10100405020635]}, "type": "Feature"}, {"properties": {"name": "Z\u00e1kladn\u00ed \u0161kola D\u011bdina, Praha 6, \u017dukovsk\u00e9ho 6", "id": "48133914", "address": "\u017dukovsk\u00e9ho 580/6, Liboc, 16100 Praha 6"}, "geometry": {"type": "Point", "coordinates": [14.309111528806111, 50.091570108768664]}, "type": "Feature"}, {"properties": {"name": "Z\u00e1kladn\u00ed \u0161kola Duhovka, s.r.o.", "id": "25625845", "address": "Nad Kajet\u00e1nkou 134/9, B\u0159evnov, 16900 Praha 6"}, "geometry": {"type": "Point", "coordinates": [14.375346395850347, 50.086371105170784]}, "type": "Feature"}, {"properties": {"name": "Z\u00e1kladn\u00ed \u0161kola genpor. Franti\u0161ka Pe\u0159iny, Praha - \u0158epy, Soch\u00e1\u0148ova 1139", "id": "48133876", "address": "Laudova 1024/10, \u0158epy, 16300 Praha 6"}, "geometry": {"type": "Point", "coordinates": [14.313591586020102, 50.06662316781839]}, "type": "Feature"}, {"properties": {"name": "Z\u00e1kladn\u00ed \u0161kola genpor. Franti\u0161ka Pe\u0159iny, Praha - \u0158epy, Soch\u00e1\u0148ova 1139", "id": "48133876", "address": "Soch\u00e1\u0148ova 1139/19, \u0158epy, 16300 Praha 6"}, "geometry": {"type": "Point", "coordinates": [14.305683205761898, 50.064147571717506]}, "type": "Feature"}, {"properties": {"name": "Z\u00e1kladn\u00ed \u0161kola Hanspaulka a Mate\u0159sk\u00e1 \u0161kola Kohoutek, Praha 6, Su\u0161ick\u00e1 29", "id": "48133787", "address": "Su\u0161ick\u00e1 1000/29, Dejvice, 16000 Praha 6"}, "geometry": {"type": "Point", "coordinates": [14.376161850069163, 50.10502340033247]}, "type": "Feature"}, {"properties": {"name": "Z\u00e1kladn\u00ed \u0161kola Jana Wericha, Praha - \u0158epy, \u0160panielova 19/1111", "id": "48133884", "address": "\u0160panielova 1111/19, \u0158epy, 16300 Praha 6"}, "geometry": {"type": "Point", "coordinates": [14.306294539464362, 50.06929714573121]}, "type": "Feature"}, {"properties": {"name": "Z\u00e1kladn\u00ed \u0161kola J\u00e1ry Cimrmana Lysolaje", "id": "70106576", "address": "\u017d\u00e1kovsk\u00e1 164/3, Lysolaje, 16500 Praha 6"}, "geometry": {"type": "Point", "coordinates": [14.371345106848887, 50.125380962971825]}, "type": "Feature"}, {"properties": {"name": "Z\u00e1kladn\u00ed \u0161kola Marj\u00e1nka, Praha 6, B\u011blohorsk\u00e1 52", "id": "63834341", "address": "B\u011blohorsk\u00e1 417/52, B\u0159evnov, 16900 Praha 6"}, "geometry": {"type": "Point", "coordinates": [14.375394417251911, 50.084776171996054]}, "type": "Feature"}, {"properties": {"name": "Z\u00e1kladn\u00ed \u0161kola Mikol\u00e1\u0161e Al\u0161e, Praha - Suchdol, Suchdolsk\u00e1 360", "id": "60434651", "address": "Suchdolsk\u00e1 360/59, Suchdol, 16500 Praha 6"}, "geometry": {"type": "Point", "coordinates": [14.378923520499407, 50.13996472262418]}, "type": "Feature"}, {"properties": {"name": "Z\u00e1kladn\u00ed \u0161kola Norbertov, Praha 6, Norbertov 1", "id": "48133906", "address": "Norbertov 126/1, St\u0159e\u0161ovice, 16200 Praha 6"}, "geometry": {"type": "Point", "coordinates": [14.377107211419098, 50.09163612316224]}, "type": "Feature"}, {"properties": {"name": "Z\u00e1kladn\u00ed \u0161kola Pet\u0159iny - sever, Praha 6, Na Okraji 43", "id": "48133795", "address": "Na okraji 305/43, Veleslav\u00edn, 16200 Praha 6"}, "geometry": {"type": "Point", "coordinates": [14.34389007064872, 50.090417132277665]}, "type": "Feature"}, {"properties": {"name": "Z\u00e1kladn\u00ed \u0161kola pro \u017e\u00e1ky se specifick\u00fdmi poruchami u\u010den\u00ed, Praha 6 - \u0158epy, U Borovi\u010dek 1", "id": "68379919", "address": "U borovi\u010dek 648/1, \u0158epy, 16300 Praha 6"}, "geometry": {"type": "Point", "coordinates": [14.3250505110178, 50.07461552860544]}, "type": "Feature"}, {"properties": {"name": "Z\u00e1kladn\u00ed \u0161kola speci\u00e1ln\u00ed a Praktick\u00e1 \u0161kola, Praha 6, Rooseveltova 8", "id": "68407157", "address": "Rooseveltova 169/8, Bubene\u010d, 16000 Praha 6"}, "geometry": {"type": "Point", "coordinates": [14.40336522998587, 50.10491587228563]}, "type": "Feature"}, {"properties": {"name": "Z\u00e1kladn\u00ed \u0161kola Vokovice", "id": "60461969", "address": "Vokovick\u00e1 32/3, Vokovice, 16000 Praha 6"}, "geometry": {"type": "Point", "coordinates": [14.346426578192624, 50.09639545758513]}, "type": "Feature"}, {"properties": {"name": "Z\u00e1kladn\u00ed \u0161kola, Praha 6, Pod Marj\u00e1nkou 2", "id": "48133761", "address": "Pod Marj\u00e1nkou 1900/2, B\u0159evnov, 16900 Praha 6"}, "geometry": {"type": "Point", "coordinates": [14.375821440122305, 50.08532188632037]}, "type": "Feature"}, {"properties": {"name": "Bratrsk\u00e1 \u0161kola - c\u00edrkevn\u00ed z\u00e1kladn\u00ed \u0161kola", "id": "48546119", "address": "Rajsk\u00e1 300/3, Hole\u0161ovice, 17000 Praha 7"}, "geometry": {"type": "Point", "coordinates": [14.44001205175352, 50.107496781507415]}, "type": "Feature"}, {"properties": {"name": "Fakultn\u00ed z\u00e1kladn\u00ed \u0161kola PedF UK a Mate\u0159sk\u00e1 \u0161kola U Stud\u00e1nky Praha 7, Um\u011bleck\u00e1 8", "id": "60435216", "address": "Um\u011bleck\u00e1 850/8, Hole\u0161ovice, 17000 Praha 7"}, "geometry": {"type": "Point", "coordinates": [14.427799965386795, 50.102755330803355]}, "type": "Feature"}, {"properties": {"name": "Z\u00e1kladn\u00ed \u0161kola a Mate\u0159sk\u00e1 \u0161kola Praha 7, Tusarova 21", "id": "62930991", "address": "Tusarova 790/21, Hole\u0161ovice, 17000 Praha 7"}, "geometry": {"type": "Point", "coordinates": [14.447584771408062, 50.10199524988941]}, "type": "Feature"}, {"properties": {"name": "Z\u00e1kladn\u00ed \u0161kola Fr. Plam\u00ednkov\u00e9 s roz\u0161\u00ed\u0159enou v\u00fdukou jazyk\u016f Praha 7, Franti\u0161ka K\u0159\u00ed\u017eka 2", "id": "62930958", "address": "Franti\u0161ka K\u0159\u00ed\u017eka 490/2, Hole\u0161ovice, 17000 Praha 7"}, "geometry": {"type": "Point", "coordinates": [14.43099556790598, 50.09728565062739]}, "type": "Feature"}, {"properties": {"name": "Z\u00e1kladn\u00ed \u0161kola Praha 7, Korunova\u010dn\u00ed 8", "id": "61389820", "address": "Korunova\u010dn\u00ed 164/8, Bubene\u010d, 17000 Praha 7"}, "geometry": {"type": "Point", "coordinates": [14.420006433625517, 50.10072385033024]}, "type": "Feature"}, {"properties": {"name": "Z\u00e1kladn\u00ed \u0161kola Praha 7, Strossmayerovo n\u00e1m\u011bst\u00ed 4", "id": "61389838", "address": "Strossmayerovo n\u00e1m\u011bst\u00ed 990/4, Hole\u0161ovice, 17000 Praha 7"}, "geometry": {"type": "Point", "coordinates": [14.435056977199455, 50.099189671807665]}, "type": "Feature"}, {"properties": {"name": "Z\u00e1kladn\u00ed \u0161kola Praha 7, Strossmayerovo n\u00e1m\u011bst\u00ed 4", "id": "61389838", "address": "Letohradsk\u00e1 370/1, Hole\u0161ovice, 17000 Praha 7"}, "geometry": {"type": "Point", "coordinates": [14.430318336745522, 50.098802393037246]}, "type": "Feature"}, {"properties": {"name": "Z\u00e1kladn\u00ed \u0161kola Praha 7, Strossmayerovo n\u00e1m\u011bst\u00ed 4", "id": "61389838", "address": "U Uranie 1576/14, Hole\u0161ovice, 17000 Praha 7"}, "geometry": {"type": "Point", "coordinates": [14.453238742232497, 50.106667990844905]}, "type": "Feature"}, {"properties": {"name": "Z\u00e1kladn\u00ed \u0161kola T. G. Masaryka Praha 7, Ortenovo n\u00e1m\u011bst\u00ed 34", "id": "62931016", "address": "Ortenovo n\u00e1m\u011bst\u00ed 1275/34, Hole\u0161ovice, 17000 Praha 7"}, "geometry": {"type": "Point", "coordinates": [14.448774797299295, 50.108601277949376]}, "type": "Feature"}, {"properties": {"name": "Z\u00e1kladn\u00ed \u0161kola, Praha 7, Trojsk\u00e1 110", "id": "70997365", "address": "Trojsk\u00e1 331/211, Troja, 17100 Praha 7"}, "geometry": {"type": "Point", "coordinates": [14.413265489180052, 50.121042832328456]}, "type": "Feature"}, {"properties": {"name": "1. Scio\u0160kola Praha - z\u00e1kladn\u00ed \u0161kola, s.r.o.", "id": "03739937", "address": "Po\u0161epn\u00e9ho n\u00e1m\u011bst\u00ed 2022/3, Chodov, 14800 Praha 4"}, "geometry": {"type": "Point", "coordinates": [14.481504528512348, 50.03159721312057]}, "type": "Feature"}, {"properties": {"name": "1. Scio\u0160kola Praha - z\u00e1kladn\u00ed \u0161kola, s.r.o.", "id": "03739937", "address": "Svatoslavova 333/6, Nusle, 14000 Praha 4"}, "geometry": {"type": "Point", "coordinates": [14.44345892250407, 50.06187732259868]}, "type": "Feature"}, {"properties": {"name": "2. Scio\u0160kola Praha - z\u00e1kladn\u00ed \u0161kola, s.r.o.", "id": "04775112", "address": "Pod T\u00e1borem 300/7, Hrdlo\u0159ezy, 19000 Praha 9"}, "geometry": {"type": "Point", "coordinates": [14.512809967951108, 50.09180119089584]}, "type": "Feature"}, {"properties": {"name": "3. Scio\u0160kola Praha - z\u00e1kladn\u00ed \u0161kola, s.r.o.", "id": "04775031", "address": "n\u00e1m\u011bst\u00ed Na Santince 2440/5, Dejvice, 16000 Praha 6"}, "geometry": {"type": "Point", "coordinates": [14.387002897712145, 50.10714117396593]}, "type": "Feature"}, {"properties": {"name": "C\u00edrkevn\u00ed z\u00e1kladn\u00ed \u0161kola logopedick\u00e1 Don Bosco a mate\u0159sk\u00e1 \u0161kola logopedick\u00e1", "id": "45770301", "address": "Dol\u00e1kova 555/1, Bohnice, 18100 Praha 8"}, "geometry": {"type": "Point", "coordinates": [14.403589735849502, 50.13293762667978]}, "type": "Feature"}, {"properties": {"name": "He\u0159m\u00e1nek Praha, z\u00e1kladn\u00ed \u0161kola", "id": "04288939", "address": "Rajmonova 1199/4, Kobylisy, 18200 Praha 8"}, "geometry": {"type": "Point", "coordinates": [14.467948475157554, 50.12882864363506]}, "type": "Feature"}, {"properties": {"name": "PORG - gymn\u00e1zium a z\u00e1kladn\u00ed \u0161kola, o.p.s.", "id": "25698117", "address": "Rostislavova 582/7, Nusle, 14000 Praha 4"}, "geometry": {"type": "Point", "coordinates": [14.445749777405398, 50.06252633972353]}, "type": "Feature"}, {"properties": {"name": "PORG - gymn\u00e1zium a z\u00e1kladn\u00ed \u0161kola, o.p.s.", "id": "25698117", "address": "J\u00e1no\u0161\u00edkova 1300/6, Kr\u010d, 14200 Praha 4"}, "geometry": {"type": "Point", "coordinates": [14.458239339237341, 50.023969662067564]}, "type": "Feature"}, {"properties": {"name": "Soukrom\u00e1 st\u0159edn\u00ed \u0161kola a z\u00e1kladn\u00ed \u0161kola (1. K\u0160PA) Praha s.r.o.", "id": "25108476", "address": "Pernerova 383/29, Karl\u00edn, 18600 Praha 8"}, "geometry": {"type": "Point", "coordinates": [14.450116147680074, 50.09049152419093]}, "type": "Feature"}, {"properties": {"name": "Z\u00e1kladn\u00ed \u0161kola a mate\u0159sk\u00e1 \u0161kola Basic Praha, o.p.s.", "id": "24746819", "address": "Petra Bezru\u010de 887/41, Kobylisy, 18200 Praha 8"}, "geometry": {"type": "Point", "coordinates": [14.459864473649365, 50.13142640899189]}, "type": "Feature"}, {"properties": {"name": "Z\u00e1kladn\u00ed \u0161kola a mate\u0159sk\u00e1 \u0161kola Na Slovance, Praha 8, Bed\u0159ichovsk\u00e1 1", "id": "60433256", "address": "Bed\u0159ichovsk\u00e1 1960/1, Libe\u0148, 18200 Praha 8"}, "geometry": {"type": "Point", "coordinates": [14.478412762884629, 50.12516056463504]}, "type": "Feature"}, {"properties": {"name": "Z\u00e1kladn\u00ed \u0161kola a mate\u0159sk\u00e1 \u0161kola Petra Strozziho, Praha 8, Za Invalidovnou 3", "id": "60461853", "address": "Za invalidovnou 579/3, Karl\u00edn, 18600 Praha 8"}, "geometry": {"type": "Point", "coordinates": [14.461817995151735, 50.09397776588376]}, "type": "Feature"}, {"properties": {"name": "Z\u00e1kladn\u00ed \u0161kola a mate\u0159sk\u00e1 \u0161kola \u00dastavn\u00ed, Praha 8, Hlivick\u00e1 1", "id": "60433337", "address": "Hlivick\u00e1 400/1, Bohnice, 18100 Praha 8"}, "geometry": {"type": "Point", "coordinates": [14.421254883297953, 50.13198329848023]}, "type": "Feature"}, {"properties": {"name": "Z\u00e1kladn\u00ed \u0161kola a mate\u0159sk\u00e1 \u0161kola, Praha 8 - \u010e\u00e1blice, U Park\u00e1nu 17", "id": "70930716", "address": "U Park\u00e1nu 17/11, \u010e\u00e1blice, 18200 Praha 8"}, "geometry": {"type": "Point", "coordinates": [14.483874397712839, 50.147884812229165]}, "type": "Feature"}, {"properties": {"name": "Z\u00e1kladn\u00ed \u0161kola a mate\u0159sk\u00e1 \u0161kola, Praha 8, Dol\u00e1kova 1", "id": "60433281", "address": "Dol\u00e1kova 555/1, Bohnice, 18100 Praha 8"}, "geometry": {"type": "Point", "coordinates": [14.403589735849502, 50.13293762667978]}, "type": "Feature"}, {"properties": {"name": "Z\u00e1kladn\u00ed \u0161kola a mate\u0159sk\u00e1 \u0161kola, Praha 8, Ly\u010dkovo n\u00e1m\u011bst\u00ed 6", "id": "60433230", "address": "Ly\u010dkovo n\u00e1m\u011bst\u00ed 460/6, Karl\u00edn, 18600 Praha 8"}, "geometry": {"type": "Point", "coordinates": [14.458433230706099, 50.0931889351744]}, "type": "Feature"}, {"properties": {"name": "Z\u00e1kladn\u00ed \u0161kola a mate\u0159sk\u00e1 \u0161kola, Praha 8, U \u0160kolsk\u00e9 zahrady 4", "id": "60461837", "address": "U \u0161kolsk\u00e9 zahrady 1030/2, Kobylisy, 18200 Praha 8"}, "geometry": {"type": "Point", "coordinates": [14.45987077613912, 50.12390154827873]}, "type": "Feature"}, {"properties": {"name": "Z\u00e1kladn\u00ed \u0161kola a Mate\u0159sk\u00e1 \u0161kola, Praha 8, Za Invalidovnou 1", "id": "70102431", "address": "Za invalidovnou 628/1, Karl\u00edn, 18600 Praha 8"}, "geometry": {"type": "Point", "coordinates": [14.46351230811204, 50.093701843491644]}, "type": "Feature"}, {"properties": {"name": "Z\u00e1kladn\u00ed \u0161kola Bohumila Hrabala, Praha 8, Zenklova 52", "id": "63113961", "address": "Na Kor\u00e1b\u011b 350/2, Libe\u0148, 18000 Praha 8"}, "geometry": {"type": "Point", "coordinates": [14.468608330479473, 50.11441564376925]}, "type": "Feature"}, {"properties": {"name": "Z\u00e1kladn\u00ed \u0161kola Bohumila Hrabala, Praha 8, Zenklova 52", "id": "63113961", "address": "Zenklova 26/52, Libe\u0148, 18000 Praha 8"}, "geometry": {"type": "Point", "coordinates": [14.472650527044918, 50.10751810160175]}, "type": "Feature"}, {"properties": {"name": "Z\u00e1kladn\u00ed \u0161kola LOPES \u010cimice, Praha 8, Lib\u010dick\u00e1 399", "id": "61387479", "address": "Lib\u010dick\u00e1 399/8, \u010cimice, 18100 Praha 8"}, "geometry": {"type": "Point", "coordinates": [14.435279453637763, 50.14027408834535]}, "type": "Feature"}, {"properties": {"name": "Z\u00e1kladn\u00ed \u0161kola Mazursk\u00e1, Praha 8, Sv\u00eddnick\u00e1 1a", "id": "60433329", "address": "Sv\u00eddnick\u00e1 599/1a, Troja, 18100 Praha 8"}, "geometry": {"type": "Point", "coordinates": [14.408922280847849, 50.128405956358414]}, "type": "Feature"}, {"properties": {"name": "Z\u00e1kladn\u00ed \u0161kola n\u011bmecko-\u010desk\u00e9ho porozum\u011bn\u00ed a Gymn\u00e1zium Thomase Manna, o.p.s.", "id": "25741497", "address": "Chaba\u0159ovick\u00e1 1125/4, Kobylisy, 18200 Praha 8"}, "geometry": {"type": "Point", "coordinates": [14.475696088582866, 50.131432429992664]}, "type": "Feature"}, {"properties": {"name": "Z\u00e1kladn\u00ed \u0161kola Praha - Doln\u00ed Chabry, p\u0159\u00edsp\u011bvkov\u00e1 organizace", "id": "70970190", "address": "Spo\u0159ick\u00e1 400/34, Doln\u00ed Chabry, 18400 Praha 8"}, "geometry": {"type": "Point", "coordinates": [14.443116734675518, 50.14529018241759]}, "type": "Feature"}, {"properties": {"name": "Z\u00e1kladn\u00ed \u0161kola p\u0159i Psychiatrick\u00e9 nemocnici Bohnice, Praha 8, \u00dastavn\u00ed 91", "id": "70828083", "address": "Pozna\u0148sk\u00e1 830/32a, Bohnice, 18100 Praha 8"}, "geometry": {"type": "Point", "coordinates": [14.41937388118994, 50.129499541473436]}, "type": "Feature"}, {"properties": {"name": "Z\u00e1kladn\u00ed \u0161kola, Praha 8, Bure\u0161ova 14", "id": "60433345", "address": "Bure\u0161ova 1130/14, Kobylisy, 18200 Praha 8"}, "geometry": {"type": "Point", "coordinates": [14.46964396305604, 50.13175081030484]}, "type": "Feature"}, {"properties": {"name": "Z\u00e1kladn\u00ed \u0161kola, Praha 8, Glowack\u00e9ho 6", "id": "60433302", "address": "Glowack\u00e9ho 555/6, Troja, 18100 Praha 8"}, "geometry": {"type": "Point", "coordinates": [14.427818929159386, 50.127662924513146]}, "type": "Feature"}, {"properties": {"name": "Z\u00e1kladn\u00ed \u0161kola, Praha 8, Hovor\u010dovick\u00e1 11", "id": "60433299", "address": "Hovor\u010dovick\u00e1 1281/11, Kobylisy, 18200 Praha 8"}, "geometry": {"type": "Point", "coordinates": [14.443634699127747, 50.12848816023219]}, "type": "Feature"}, {"properties": {"name": "Z\u00e1kladn\u00ed \u0161kola, Praha 8, Lib\u010dick\u00e1 10", "id": "60461811", "address": "Lib\u010dick\u00e1 658/10, \u010cimice, 18100 Praha 8"}, "geometry": {"type": "Point", "coordinates": [14.436922871838687, 50.14001377865962]}, "type": "Feature"}, {"properties": {"name": "Z\u00e1kladn\u00ed \u0161kola, Praha 8, Na \u0160utce 28", "id": "60461845", "address": "Na \u0160utce 440/28, Troja, 18200 Praha 8"}, "geometry": {"type": "Point", "coordinates": [14.445986213979483, 50.12318011620613]}, "type": "Feature"}, {"properties": {"name": "Z\u00e1kladn\u00ed \u0161kola, Praha 8, Palmovka 8", "id": "60433248", "address": "Palmovka 468/8, Libe\u0148, 18000 Praha 8"}, "geometry": {"type": "Point", "coordinates": [14.474761630955403, 50.10276918153824]}, "type": "Feature"}, {"properties": {"name": "Z\u00e1kladn\u00ed \u0161kola, Praha 8, \u017dernoseck\u00e1 3", "id": "60433272", "address": "\u017dernoseck\u00e1 1597/3, Kobylisy, 18200 Praha 8"}, "geometry": {"type": "Point", "coordinates": [14.468892082910596, 50.132813737113516]}, "type": "Feature"}, {"properties": {"name": "Fakultn\u00ed z\u00e1kladn\u00ed \u0161kola, Praha 9 - Horn\u00ed Po\u010dernice, Chodovick\u00e1 2250", "id": "49625195", "address": "Chodovick\u00e1 2250/36, Horn\u00ed Po\u010dernice, 19300 Praha 9"}, "geometry": {"type": "Point", "coordinates": [14.618632250617805, 50.11087860885584]}, "type": "Feature"}, {"properties": {"name": "Masarykova z\u00e1kladn\u00ed \u0161kola, Praha 9 - Kl\u00e1novice, Slav\u011bt\u00ednsk\u00e1 200", "id": "63833956", "address": "Slav\u011bt\u00ednsk\u00e1 200, Kl\u00e1novice, 19014 Praha 9"}, "geometry": {"type": "Point", "coordinates": [14.669730519957714, 50.095472035620304]}, "type": "Feature"}, {"properties": {"name": "Masarykova z\u00e1kladn\u00ed \u0161kola, Praha 9 - \u00dajezd nad Lesy, Polesn\u00e1 1690", "id": "47608579", "address": "Polesn\u00e1 1690, \u00dajezd nad Lesy, 19016 Praha 9"}, "geometry": {"type": "Point", "coordinates": [14.654157210977903, 50.078486473227386]}, "type": "Feature"}, {"properties": {"name": "Mate\u0159sk\u00e1 \u0161kola a z\u00e1kladn\u00ed \u0161kola pro d\u011bti s kombinovan\u00fdm posti\u017een\u00edm PINK CROCODILE SCHOOL, o.p.s.", "id": "24215627", "address": "Hav\u00ed\u0159ovsk\u00e1 476, Let\u0148any, 19900 Praha 9"}, "geometry": {"type": "Point", "coordinates": [14.508000307703204, 50.134774741071325]}, "type": "Feature"}, {"properties": {"name": "Mate\u0159sk\u00e1 \u0161kola a Z\u00e1kladn\u00ed \u0161kola, Praha 9, B\u00e1rtlova 83", "id": "70848572", "address": "B\u00e1rtlova 83/1, Horn\u00ed Po\u010dernice, 19300 Praha 9"}, "geometry": {"type": "Point", "coordinates": [14.631049444797576, 50.118985581623136]}, "type": "Feature"}, {"properties": {"name": "M\u00e9tis - z\u00e1kladn\u00ed \u0161kola s.r.o.", "id": "24308404", "address": "Pod Balk\u00e1nem 599/2, Vyso\u010dany, 19000 Praha 9"}, "geometry": {"type": "Point", "coordinates": [14.484593598157545, 50.09907608672833]}, "type": "Feature"}, {"properties": {"name": "Soukrom\u00e1 z\u00e1kladn\u00ed \u0161kola UNIVERZUM s.r.o.", "id": "25132083", "address": "\u010ceskolipsk\u00e1 373/27, St\u0159\u00ed\u017ekov, 19000 Praha 9"}, "geometry": {"type": "Point", "coordinates": [14.499556840575625, 50.126288660338474]}, "type": "Feature"}, {"properties": {"name": "Victoria School, s.r.o., z\u00e1kladn\u00ed \u0161kola a mate\u0159sk\u00e1 \u0161kola", "id": "28431634", "address": "Slav\u011bt\u00ednsk\u00e1 82, Kl\u00e1novice, 19014 Praha 9"}, "geometry": {"type": "Point", "coordinates": [14.666509788993807, 50.09031355492314]}, "type": "Feature"}, {"properties": {"name": "Z\u00e1kladn\u00ed \u0161kola a Mate\u0159sk\u00e1 \u0161kola gener\u00e1la Franti\u0161ka Fajtla DFC", "id": "60446005", "address": "Rychnovsk\u00e1 350, Let\u0148any, 19900 Praha 9"}, "geometry": {"type": "Point", "coordinates": [14.51121567114015, 50.135104488092075]}, "type": "Feature"}, {"properties": {"name": "Z\u00e1kladn\u00ed \u0161kola a mate\u0159sk\u00e1 \u0161kola Kolod\u011bje", "id": "70908133", "address": "Lupenick\u00e1 20/6, Kolod\u011bje, 19016 Praha 9"}, "geometry": {"type": "Point", "coordinates": [14.640293281696222, 50.05959895819156]}, "type": "Feature"}, {"properties": {"name": "Z\u00e1kladn\u00ed \u0161kola a Mate\u0159sk\u00e1 \u0161kola Na Balabence", "id": "61387525", "address": "n\u00e1m\u011bst\u00ed Na Balabence 800/7, Libe\u0148, 19000 Praha 9"}, "geometry": {"type": "Point", "coordinates": [14.483522237927392, 50.10599672675486]}, "type": "Feature"}, {"properties": {"name": "Z\u00e1kladn\u00ed \u0161kola a Mate\u0159sk\u00e1 \u0161kola Praha - Vino\u0159", "id": "60460865", "address": "Prachovick\u00e1 340, Vino\u0159, 19017 Praha 9"}, "geometry": {"type": "Point", "coordinates": [14.581490209468308, 50.14657580432473]}, "type": "Feature"}, {"properties": {"name": "Z\u00e1kladn\u00ed \u0161kola a Mate\u0159sk\u00e1 \u0161kola Tupolevova", "id": "60445939", "address": "Dobratick\u00e1 525, Let\u0148any, 19900 Praha 9"}, "geometry": {"type": "Point", "coordinates": [14.509748584485559, 50.130598134244366]}, "type": "Feature"}, {"properties": {"name": "Z\u00e1kladn\u00ed \u0161kola a Mate\u0159sk\u00e1 \u0161kola, Praha 9 - Horn\u00ed Po\u010dernice, Spojenc\u016f 1408", "id": "63830817", "address": "Spojenc\u016f 1408/63, Horn\u00ed Po\u010dernice, 19300 Praha 9"}, "geometry": {"type": "Point", "coordinates": [14.606376879322985, 50.1066574784086]}, "type": "Feature"}, {"properties": {"name": "Z\u00e1kladn\u00ed \u0161kola Dr. Edvarda Bene\u0161e, Praha 9 - \u010cakovice, n\u00e1m\u011bst\u00ed Ji\u0159\u00edho Berana 500", "id": "70918805", "address": "n\u00e1m\u011bst\u00ed Ji\u0159\u00edho Berana 500/1, \u010cakovice, 19600 Praha 9"}, "geometry": {"type": "Point", "coordinates": [14.526374498344355, 50.15089452919733]}, "type": "Feature"}, {"properties": {"name": "Z\u00e1kladn\u00ed \u0161kola Fry\u010dovick\u00e1", "id": "63832151", "address": "Fry\u010dovick\u00e1 462, Let\u0148any, 19900 Praha 9"}, "geometry": {"type": "Point", "coordinates": [14.5067570564628, 50.137803080912356]}, "type": "Feature"}, {"properties": {"name": "Z\u00e1kladn\u00ed \u0161kola Litv\u00ednovsk\u00e1 500", "id": "61381861", "address": "Litv\u00ednovsk\u00e1 500/5, Prosek, 19000 Praha 9"}, "geometry": {"type": "Point", "coordinates": [14.486876829359225, 50.12095593785057]}, "type": "Feature"}, {"properties": {"name": "Z\u00e1kladn\u00ed \u0161kola Litv\u00ednovsk\u00e1 600", "id": "61387568", "address": "Litv\u00ednovsk\u00e1 600/1, Prosek, 19000 Praha 9"}, "geometry": {"type": "Point", "coordinates": [14.491971196225128, 50.11933368769989]}, "type": "Feature"}, {"properties": {"name": "Z\u00e1kladn\u00ed \u0161kola Livingston s.r.o.", "id": "03012557", "address": "V\u00e1\u017esk\u00e1 998/2, \u010cakovice, 19600 Praha 9"}, "geometry": {"type": "Point", "coordinates": [14.526389409653902, 50.149803062227114]}, "type": "Feature"}, {"properties": {"name": "Z\u00e1kladn\u00ed \u0161kola Novoborsk\u00e1", "id": "61381276", "address": "Novoborsk\u00e1 371/10, St\u0159\u00ed\u017ekov, 19000 Praha 9"}, "geometry": {"type": "Point", "coordinates": [14.497980143056267, 50.127779508294324]}, "type": "Feature"}, {"properties": {"name": "Z\u00e1kladn\u00ed \u0161kola Orangery s.r.o.", "id": "05431697", "address": "N\u00e1rodn\u00edch hrdin\u016f 11, Doln\u00ed Po\u010dernice, 19012 Praha 9"}, "geometry": {"type": "Point", "coordinates": [14.577424302260667, 50.08877742623938]}, "type": "Feature"}, {"properties": {"name": "Z\u00e1kladn\u00ed \u0161kola Praha - B\u011bchovice", "id": "70902461", "address": "M\u00fdtn\u00ed 73, B\u011bchovice, 19011 Praha 9"}, "geometry": {"type": "Point", "coordinates": [14.6166698122344, 50.080620032229376]}, "type": "Feature"}, {"properties": {"name": "Z\u00e1kladn\u00ed \u0161kola Praha - Kbely", "id": "61384780", "address": "Albrechtick\u00e1 732/1, Kbely, 19700 Praha 9"}, "geometry": {"type": "Point", "coordinates": [14.544983614632477, 50.134550635255714]}, "type": "Feature"}, {"properties": {"name": "Z\u00e1kladn\u00ed \u0161kola Spektrum, s.r.o.", "id": "28237692", "address": "Kytlick\u00e1 757/17, Prosek, 19000 Praha 9"}, "geometry": {"type": "Point", "coordinates": [14.505618962424872, 50.12528221067325]}, "type": "Feature"}, {"properties": {"name": "Z\u00e1kladn\u00ed \u0161kola \u0160pit\u00e1lsk\u00e1", "id": "61382213", "address": "\u0160pit\u00e1lsk\u00e1 789/4, Vyso\u010dany, 19000 Praha 9"}, "geometry": {"type": "Point", "coordinates": [14.50474357664849, 50.10994564827196]}, "type": "Feature"}, {"properties": {"name": "Z\u00e1kladn\u00ed \u0161kola Tolerance, Praha 9, Mochovsk\u00e1 570", "id": "70831025", "address": "Mochovsk\u00e1 570/41, Hloub\u011bt\u00edn, 19800 Praha 9"}, "geometry": {"type": "Point", "coordinates": [14.54125843779789, 50.10809531208925]}, "type": "Feature"}, {"properties": {"name": "Z\u00e1kladn\u00ed \u0161kola, Praha 9 - \u010cern\u00fd Most, B\u0159\u00ed. Vencl\u00edk\u016f 1140", "id": "63832836", "address": "Brat\u0159\u00ed Vencl\u00edk\u016f 1140/1, \u010cern\u00fd Most, 19800 Praha 9"}, "geometry": {"type": "Point", "coordinates": [14.559429432566677, 50.10498839189107]}, "type": "Feature"}, {"properties": {"name": "Z\u00e1kladn\u00ed \u0161kola, Praha 9 - \u010cern\u00fd Most, Gen. Janou\u0161ka 1006", "id": "61386898", "address": "Gener\u00e1la Janou\u0161ka 1060/2, \u010cern\u00fd Most, 19800 Praha 9"}, "geometry": {"type": "Point", "coordinates": [14.565080665370333, 50.10328950271333]}, "type": "Feature"}, {"properties": {"name": "Z\u00e1kladn\u00ed \u0161kola, Praha 9 - \u010cern\u00fd Most, Vyb\u00edralova 964", "id": "61386618", "address": "Vyb\u00edralova 964/8, \u010cern\u00fd Most, 19800 Praha 9"}, "geometry": {"type": "Point", "coordinates": [14.583183677565481, 50.10451207228804]}, "type": "Feature"}, {"properties": {"name": "Z\u00e1kladn\u00ed \u0161kola, Praha 9 - Doln\u00ed Po\u010dernice, N\u00e1rodn\u00edch hrdin\u016f 70", "id": "45246025", "address": "N\u00e1rodn\u00edch hrdin\u016f 70, Doln\u00ed Po\u010dernice, 19012 Praha 9"}, "geometry": {"type": "Point", "coordinates": [14.582646166713918, 50.08901978188165]}, "type": "Feature"}, {"properties": {"name": "Z\u00e1kladn\u00ed \u0161kola, Praha 9 - Hloub\u011bt\u00edn, Hloub\u011bt\u00ednsk\u00e1 700", "id": "49625128", "address": "Hloub\u011bt\u00ednsk\u00e1 700/24, Hloub\u011bt\u00edn, 19800 Praha 9"}, "geometry": {"type": "Point", "coordinates": [14.535786956084113, 50.102291294358004]}, "type": "Feature"}, {"properties": {"name": "Z\u00e1kladn\u00ed \u0161kola, Praha 9 - Horn\u00ed Po\u010dernice, Ratibo\u0159ick\u00e1 1700", "id": "63830825", "address": "Ratibo\u0159ick\u00e1 1700/28, Horn\u00ed Po\u010dernice, 19300 Praha 9"}, "geometry": {"type": "Point", "coordinates": [14.61557019481108, 50.11123405672264]}, "type": "Feature"}, {"properties": {"name": "Z\u00e1kladn\u00ed \u0161kola, Praha 9 - Horn\u00ed Po\u010dernice, Stoli\u0148sk\u00e1 823", "id": "63830809", "address": "Stoli\u0148sk\u00e1 823/16, Horn\u00ed Po\u010dernice, 19300 Praha 9"}, "geometry": {"type": "Point", "coordinates": [14.593445374906084, 50.110960738711874]}, "type": "Feature"}, {"properties": {"name": "Z\u00e1kladn\u00ed \u0161kola, Praha 9 - Kyje, \u0160imanovsk\u00e1 16", "id": "70885168", "address": "\u0160imanovsk\u00e1 16, Kyje, 19800 Praha 9"}, "geometry": {"type": "Point", "coordinates": [14.54620267708529, 50.09802856828481]}, "type": "Feature"}, {"properties": {"name": "Z\u00e1kladn\u00ed \u0161kola, Praha 9 - Lehovec, Chvaletick\u00e1 918", "id": "61381233", "address": "Chvaletick\u00e1 918/4, Hloub\u011bt\u00edn, 19800 Praha 9"}, "geometry": {"type": "Point", "coordinates": [14.550347859784786, 50.105197542327105]}, "type": "Feature"}, {"properties": {"name": "Z\u00e1kladn\u00ed \u0161kola, Praha 9 - Satalice, K Ciheln\u011b 137", "id": "65992911", "address": "K ciheln\u011b 137/8, Satalice, 19015 Praha 9"}, "geometry": {"type": "Point", "coordinates": [14.573812011400536, 50.12488256574359]}, "type": "Feature"}, {"properties": {"name": "Kouzeln\u00e9 \u0161koly - mate\u0159sk\u00e1 \u0161kola a z\u00e1kladn\u00ed \u0161kola", "id": "71341021", "address": "Koda\u0148sk\u00e1 54/10, Vr\u0161ovice, 10100 Praha 10"}, "geometry": {"type": "Point", "coordinates": [14.45245316728059, 50.071226254545266]}, "type": "Feature"}, {"properties": {"name": "Mate\u0159sk\u00e1 \u0161kola a z\u00e1kladn\u00ed \u0161kola Beehive s.r.o.", "id": "24802328", "address": "Na \u0160afr\u00e1nce 1651/9, Vinohrady, 10100 Praha 10"}, "geometry": {"type": "Point", "coordinates": [14.452839638024733, 50.07292305532028]}, "type": "Feature"}, {"properties": {"name": "Soukrom\u00e1 z\u00e1kladn\u00ed \u0161kola sRVJ - DINO ELEMENTARY SCHOOL, s.r.o.", "id": "27091619", "address": "Bellova 352, Petrovice, 10900 Praha 10"}, "geometry": {"type": "Point", "coordinates": [14.560484133432716, 50.03501618969506]}, "type": "Feature"}, {"properties": {"name": "St\u0159edn\u00ed \u0161kola, Z\u00e1kladn\u00ed \u0161kola a Mate\u0159sk\u00e1 \u0161kola, Praha 10, Chotou\u0148sk\u00e1 476", "id": "70835578", "address": "Chotou\u0148sk\u00e1 476/1, Male\u0161ice, 10800 Praha 10"}, "geometry": {"type": "Point", "coordinates": [14.49676206522924, 50.08377395512756]}, "type": "Feature"}, {"properties": {"name": "Z\u00e1kladn\u00ed \u0161kola a Mate\u0159sk\u00e1 \u0161kola, Praha 10 - \u0160t\u011brboholy", "id": "70885451", "address": "U \u0161koly 285, \u0160t\u011brboholy, 10200 Praha 10"}, "geometry": {"type": "Point", "coordinates": [14.551733736512581, 50.07078119997721]}, "type": "Feature"}, {"properties": {"name": "Z\u00e1kladn\u00ed \u0161kola a St\u0159edn\u00ed \u0161kola, Praha 10, Vachkova 941", "id": "61385450", "address": "Vachkova 941/13, Uh\u0159\u00edn\u011bves, 10400 Praha 10"}, "geometry": {"type": "Point", "coordinates": [14.594961914718498, 50.03634711904464]}, "type": "Feature"}, {"properties": {"name": "Z\u00e1kladn\u00ed \u0161kola Eden, Praha 10, Vladivostock\u00e1 6/1035", "id": "65993497", "address": "Vladivostock\u00e1 1035/6, Vr\u0161ovice, 10000 Praha 10"}, "geometry": {"type": "Point", "coordinates": [14.474714081600096, 50.068888979350305]}, "type": "Feature"}, {"properties": {"name": "Z\u00e1kladn\u00ed \u0161kola Karla \u010capka, Praha 10, Koda\u0148sk\u00e1 16/658", "id": "47611057", "address": "Koda\u0148sk\u00e1 658/16, Vr\u0161ovice, 10100 Praha 10"}, "geometry": {"type": "Point", "coordinates": [14.457092865093953, 50.07097757586327]}, "type": "Feature"}, {"properties": {"name": "Z\u00e1kladn\u00ed \u0161kola logopedick\u00e1 a Mate\u0159sk\u00e1 \u0161kola logopedick\u00e1, Praha 10, Moskevsk\u00e1 29", "id": "61385425", "address": "Moskevsk\u00e1 408/29, Vr\u0161ovice, 10100 Praha 10"}, "geometry": {"type": "Point", "coordinates": [14.454606400825055, 50.069329623870665]}, "type": "Feature"}, {"properties": {"name": "Z\u00e1kladn\u00ed \u0161kola Praha - Kolovraty", "id": "70926921", "address": "M\u00edrov\u00e1 57/47, Kolovraty, 10300 Praha 10"}, "geometry": {"type": "Point", "coordinates": [14.626014387883457, 50.01178981531065]}, "type": "Feature"}, {"properties": {"name": "Z\u00e1kladn\u00ed \u0161kola Praha - Kolovraty", "id": "70926921", "address": "K po\u0161t\u011b 450/7, Kolovraty, 10300 Praha 10"}, "geometry": {"type": "Point", "coordinates": [14.62834610308968, 50.013951536099654]}, "type": "Feature"}, {"properties": {"name": "Z\u00e1kladn\u00ed \u0161kola Praha - Kolovraty", "id": "70926921", "address": "Alb\u00edny Hochov\u00e9 880/26a, Kolovraty, 10300 Praha 10"}, "geometry": {"type": "Point", "coordinates": [14.626661534516186, 50.01384915151555]}, "type": "Feature"}, {"properties": {"name": "Z\u00e1kladn\u00ed \u0161kola Praha - Petrovice, p\u0159\u00edsp\u011bvkov\u00e1 organizace", "id": "71008314", "address": "Dopplerova 351, Petrovice, 10900 Praha 10"}, "geometry": {"type": "Point", "coordinates": [14.558752121070965, 50.03444851366858]}, "type": "Feature"}, {"properties": {"name": "Z\u00e1kladn\u00ed \u0161kola speci\u00e1ln\u00ed, Praha 10, Starostra\u0161nick\u00e1 45", "id": "65401646", "address": "Starostra\u0161nick\u00e1 120/45, Stra\u0161nice, 10000 Praha 10"}, "geometry": {"type": "Point", "coordinates": [14.490230149895899, 50.074638827049235]}, "type": "Feature"}, {"properties": {"name": "Z\u00e1kladn\u00ed \u0161kola U Obory, Praha 10, Vachkova 630", "id": "62933671", "address": "Vachkova 630/15, Uh\u0159\u00edn\u011bves, 10400 Praha 10"}, "geometry": {"type": "Point", "coordinates": [14.595690790382129, 50.036237571038704]}, "type": "Feature"}, {"properties": {"name": "Z\u00e1kladn\u00ed \u0161kola, Praha 10 - Hostiva\u0159, Kozinova 1000", "id": "47611332", "address": "Kozinova 1000/1, Hostiva\u0159, 10200 Praha 10"}, "geometry": {"type": "Point", "coordinates": [14.521095389578313, 50.04919694428469]}, "type": "Feature"}, {"properties": {"name": "Z\u00e1kladn\u00ed \u0161kola, Praha 10, Brig\u00e1dn\u00edk\u016f 14/510", "id": "47611898", "address": "Brig\u00e1dn\u00edk\u016f 510/14, Stra\u0161nice, 10000 Praha 10"}, "geometry": {"type": "Point", "coordinates": [14.500923434639482, 50.07454249891888]}, "type": "Feature"}, {"properties": {"name": "Z\u00e1kladn\u00ed \u0161kola, Praha 10, B\u0159e\u010d\u0165anov\u00e1 6/2919", "id": "47611871", "address": "B\u0159e\u010d\u0165anov\u00e1 2919/6, Z\u00e1b\u011bhlice, 10600 Praha 10"}, "geometry": {"type": "Point", "coordinates": [14.496872841210436, 50.05481301107717]}, "type": "Feature"}, {"properties": {"name": "Z\u00e1kladn\u00ed \u0161kola, Praha 10, Gutova 39/1987", "id": "47611880", "address": "Gutova 1987/39, Stra\u0161nice, 10000 Praha 10"}, "geometry": {"type": "Point", "coordinates": [14.492625790862093, 50.070660425144]}, "type": "Feature"}, {"properties": {"name": "Z\u00e1kladn\u00ed \u0161kola, Praha 10, Hornom\u011bcholupsk\u00e1 873", "id": "62930729", "address": "Hornom\u011bcholupsk\u00e1 873, Hostiva\u0159, 10200 Praha 10"}, "geometry": {"type": "Point", "coordinates": [14.537873200112232, 50.04946009750675]}, "type": "Feature"}, {"properties": {"name": "Z\u00e1kladn\u00ed \u0161kola, Praha 10, Host\u00fdnsk\u00e1 2/2100", "id": "47611171", "address": "Host\u00fdnsk\u00e1 2100/2, Stra\u0161nice, 10800 Praha 10"}, "geometry": {"type": "Point", "coordinates": [14.495398867540326, 50.07990927983668]}, "type": "Feature"}, {"properties": {"name": "Z\u00e1kladn\u00ed \u0161kola, Praha 10, Jakutsk\u00e1 2/1210", "id": "65993250", "address": "Jakutsk\u00e1 1210/2, Vr\u0161ovice, 10000 Praha 10"}, "geometry": {"type": "Point", "coordinates": [14.472731522604475, 50.07220702267864]}, "type": "Feature"}, {"properties": {"name": "Z\u00e1kladn\u00ed \u0161kola, Praha 10, K\u0159imick\u00e1 314", "id": "63831589", "address": "K\u0159imick\u00e1 314, Horn\u00ed M\u011bcholupy, 10900 Praha 10"}, "geometry": {"type": "Point", "coordinates": [14.561641679803012, 50.04704290145307]}, "type": "Feature"}, {"properties": {"name": "Z\u00e1kladn\u00ed \u0161kola, Praha 10, Kutnohorsk\u00e1 36", "id": "70926280", "address": "Kutnohorsk\u00e1 106/36, Doln\u00ed M\u011bcholupy, 10900 Praha 10"}, "geometry": {"type": "Point", "coordinates": [14.558626674786094, 50.05940254625836]}, "type": "Feature"}, {"properties": {"name": "Z\u00e1kladn\u00ed \u0161kola, Praha 10, Nad P\u0159ehradou 469", "id": "63831686", "address": "Nad p\u0159ehradou 469, Horn\u00ed M\u011bcholupy, 10900 Praha 10"}, "geometry": {"type": "Point", "coordinates": [14.55032752906884, 50.04104349513711]}, "type": "Feature"}, {"properties": {"name": "Z\u00e1kladn\u00ed \u0161kola, Praha 10, Nad Vodovodem 81/460", "id": "47611014", "address": "Nad vodovodem 460/81, Male\u0161ice, 10800 Praha 10"}, "geometry": {"type": "Point", "coordinates": [14.498591426655825, 50.08254862620676]}, "type": "Feature"}, {"properties": {"name": "Z\u00e1kladn\u00ed \u0161kola, Praha 10, n\u00e1m. B\u0159\u00ed Jandus\u016f 2", "id": "62933540", "address": "n\u00e1m\u011bst\u00ed Brat\u0159\u00ed Jandus\u016f 2/38, Uh\u0159\u00edn\u011bves, 10400 Praha 10"}, "geometry": {"type": "Point", "coordinates": [14.604146728379256, 50.03002107358314]}, "type": "Feature"}, {"properties": {"name": "Z\u00e1kladn\u00ed \u0161kola, Praha 10, n\u00e1m. B\u0159\u00ed Jandus\u016f 2", "id": "62933540", "address": "n\u00e1m\u011bst\u00ed Brat\u0159\u00ed Jandus\u016f 1554, Uh\u0159\u00edn\u011bves, 10400 Praha 10"}, "geometry": {"type": "Point", "coordinates": [14.602966709855885, 50.03101974144116]}, "type": "Feature"}, {"properties": {"name": "Z\u00e1kladn\u00ed \u0161kola, Praha 10, Ole\u0161sk\u00e1 18/2222", "id": "47611073", "address": "Ole\u0161sk\u00e1 2222/18, Stra\u0161nice, 10000 Praha 10"}, "geometry": {"type": "Point", "coordinates": [14.511382166576892, 50.06428667274093]}, "type": "Feature"}, {"properties": {"name": "Z\u00e1kladn\u00ed \u0161kola, Praha 10, Pr\u00e1\u010dsk\u00e1 37", "id": "70835632", "address": "Pr\u00e1\u010dsk\u00e1 159/37, Z\u00e1b\u011bhlice, 10600 Praha 10"}, "geometry": {"type": "Point", "coordinates": [14.500777214355711, 50.053423223410476]}, "type": "Feature"}, {"properties": {"name": "Z\u00e1kladn\u00ed \u0161kola, Praha 10, \u0160vehlova 12/2900", "id": "65993276", "address": "\u0160vehlova 2900/12, Z\u00e1b\u011bhlice, 10600 Praha 10"}, "geometry": {"type": "Point", "coordinates": [14.508294717276721, 50.05845739658451]}, "type": "Feature"}, {"properties": {"name": "Z\u00e1kladn\u00ed \u0161kola, Praha 10, U Roh\u00e1\u010dov\u00fdch kas\u00e1ren 19/1381", "id": "65993225", "address": "U Roh\u00e1\u010dov\u00fdch kas\u00e1ren 1381/19, Vr\u0161ovice, 10000 Praha 10"}, "geometry": {"type": "Point", "coordinates": [14.466792978063406, 50.07072957257489]}, "type": "Feature"}, {"properties": {"name": "Z\u00e1kladn\u00ed \u0161kola, Praha 10, U Vr\u0161ovick\u00e9ho n\u00e1dra\u017e\u00ed 1/950", "id": "65993284", "address": "U vr\u0161ovick\u00e9ho n\u00e1dra\u017e\u00ed 950/1, Vr\u0161ovice, 10100 Praha 10"}, "geometry": {"type": "Point", "coordinates": [14.447942163072875, 50.066871914406974]}, "type": "Feature"}, {"properties": {"name": "Z\u00e1kladn\u00ed \u0161kola, Praha 10, V Rybn\u00ed\u010dk\u00e1ch 31/1980", "id": "48132012", "address": "V Rybn\u00ed\u010dk\u00e1ch 1980/31, Stra\u0161nice, 10000 Praha 10"}, "geometry": {"type": "Point", "coordinates": [14.506352088467164, 50.071043726288416]}, "type": "Feature"}, {"properties": {"name": "Z\u00e1kladn\u00ed \u0161kola, Praha 10, Veronsk\u00e9 n\u00e1m\u011bst\u00ed 391", "id": "63831678", "address": "Veronsk\u00e9 n\u00e1m. 391, Horn\u00ed M\u011bcholupy, 10900 Praha 10"}, "geometry": {"type": "Point", "coordinates": [14.56264702478412, 50.040646413689956]}, "type": "Feature"}, {"properties": {"name": "Z\u00e1kladn\u00ed \u0161kola, Starodube\u010dsk\u00e1 413, Praha 10 - Dube\u010d", "id": "70888825", "address": "Starodube\u010dsk\u00e1 413/14, Dube\u010d, 10700 Praha 10"}, "geometry": {"type": "Point", "coordinates": [14.590937035695557, 50.06324254707753]}, "type": "Feature"}, {"properties": {"name": "Z\u00e1kladn\u00ed \u0161kola a mate\u0159sk\u00e1 \u0161kola Bene\u0161ov, Na Karlov\u011b 372", "id": "75033054", "address": "Na Karlov\u011b 372, 25601 Bene\u0161ov"}, "geometry": {"type": "Point", "coordinates": [14.691463577895385, 49.7848429086367]}, "type": "Feature"}, {"properties": {"name": "Z\u00e1kladn\u00ed \u0161kola a Praktick\u00e1 \u0161kola Bene\u0161ov, Konopi\u0161\u0165sk\u00e1 386", "id": "75033046", "address": "Konopi\u0161\u0165sk\u00e1 386, 25601 Bene\u0161ov"}, "geometry": {"type": "Point", "coordinates": [14.679571749482182, 49.78088824516015]}, "type": "Feature"}, {"properties": {"name": "Z\u00e1kladn\u00ed \u0161kola Bene\u0161ov, Dukelsk\u00e1 1818", "id": "75033071", "address": "Dukelsk\u00e1 1818, 25601 Bene\u0161ov"}, "geometry": {"type": "Point", "coordinates": [14.682484053565203, 49.783119362780766]}, "type": "Feature"}, {"properties": {"name": "Z\u00e1kladn\u00ed \u0161kola Bene\u0161ov, Jir\u00e1skova 888", "id": "75033062", "address": "Jir\u00e1skova 888, 25601 Bene\u0161ov"}, "geometry": {"type": "Point", "coordinates": [14.68822200795716, 49.78088932120348]}, "type": "Feature"}, {"properties": {"name": "Mate\u0159sk\u00e1 \u0161kola a z\u00e1kladn\u00ed \u0161kola GAIA", "id": "02043378", "address": "Klus\u00e1\u010dkova 2, 25741 T\u00fdnec nad S\u00e1zavou"}, "geometry": {"type": "Point", "coordinates": [14.590790732278728, 49.829904145103136]}, "type": "Feature"}, {"properties": {"name": "Z\u00e1kladn\u00ed \u0161kola Byst\u0159ice, okres Bene\u0161ov, p\u0159\u00edsp\u011bvkov\u00e1 organizace", "id": "49528351", "address": "Dr. E. Bene\u0161e 300, 25751 Byst\u0159ice"}, "geometry": {"type": "Point", "coordinates": [14.667221717126786, 49.737890597231704]}, "type": "Feature"}, {"properties": {"name": "Z\u00e1kladn\u00ed \u0161kola \u010cechtice, okres Bene\u0161ov, p\u0159\u00edsp\u011bvkov\u00e1 organizace", "id": "70996890", "address": "Na L\u00e1zni 335, 25765 \u010cechtice"}, "geometry": {"type": "Point", "coordinates": [15.045572466271937, 49.625166549679726]}, "type": "Feature"}, {"properties": {"name": "Z\u00e1kladn\u00ed \u0161kola \u010cer\u010dany, okres Bene\u0161ov", "id": "70879176", "address": "Sokolsk\u00e1 180, 25722 \u010cer\u010dany"}, "geometry": {"type": "Point", "coordinates": [14.704449346298919, 49.85307272691022]}, "type": "Feature"}, {"properties": {"name": "Z\u00e1kladn\u00ed \u0161kola Divi\u0161ov, okres Bene\u0161ov", "id": "70998515", "address": "Na Sadech 260, 25726 Divi\u0161ov"}, "geometry": {"type": "Point", "coordinates": [14.875080927879251, 49.79125101886627]}, "type": "Feature"}, {"properties": {"name": "Z\u00e1kladn\u00ed \u0161kola a mate\u0159sk\u00e1 \u0161kola Doln\u00ed Kralovice, okres Bene\u0161ov", "id": "47084464", "address": "\u0160koln\u00ed 1, 25768 Doln\u00ed Kralovice"}, "geometry": {"type": "Point", "coordinates": [15.17675326447247, 49.64433792872164]}, "type": "Feature"}, {"properties": {"name": "Sportovn\u00ed z\u00e1kladn\u00ed \u0161kola a mate\u0159sk\u00e1 \u0161kola \u010clov\u00ed\u010dek s.r.o.", "id": "24723649", "address": "\u010d.p. 334, 25724 Chocerady"}, "geometry": {"type": "Point", "coordinates": [14.80939955558247, 49.87350146970824]}, "type": "Feature"}, {"properties": {"name": "Z\u00e1kladn\u00ed \u0161kola a Mate\u0159sk\u00e1 \u0161kola Chocerady 267, p\u0159\u00edsp\u011bvkov\u00e1 organizace", "id": "75002922", "address": "\u010d.ev. 267, 25724 Chocerady"}, "geometry": {"type": "Point", "coordinates": [14.820389043200837, 49.88422782136631]}, "type": "Feature"}, {"properties": {"name": "Z\u00e1kladn\u00ed \u0161kola a Mate\u0159sk\u00e1 \u0161kola, Chot\u00fd\u0161any, okres Bene\u0161ov", "id": "71006559", "address": "\u010d.p. 49, 25728 Chot\u00fd\u0161any"}, "geometry": {"type": "Point", "coordinates": [14.818196754048476, 49.744471766468656]}, "type": "Feature"}, {"properties": {"name": "Z\u00e1kladn\u00ed \u0161kola a mate\u0159sk\u00e1 \u0161kola Jankov, okres Bene\u0161ov", "id": "75033364", "address": "Na n\u00e1m\u011bst\u00ed 29, 25703 Jankov"}, "geometry": {"type": "Point", "coordinates": [14.73093108809355, 49.65295013122177]}, "type": "Feature"}, {"properties": {"name": "Z\u00e1kladn\u00ed \u0161kola Krhanice, okres Bene\u0161ov", "id": "75033453", "address": "\u010d.ev. 149, 25742 Krhanice"}, "geometry": {"type": "Point", "coordinates": [14.55027732304693, 49.85536130363274]}, "type": "Feature"}, {"properties": {"name": "Z\u00e1kladn\u00ed \u0161kola Josefa Suka a mate\u0159sk\u00e1 \u0161kola K\u0159e\u010dovice", "id": "75034794", "address": "Str\u00e1\u017eovice 37, 25756 K\u0159e\u010dovice"}, "geometry": {"type": "Point", "coordinates": [14.509417987451894, 49.718965101482226]}, "type": "Feature"}, {"properties": {"name": "Z\u00e1kladn\u00ed \u0161kola a mate\u0159sk\u00e1 \u0161kola Le\u0161any, okres Bene\u0161ov", "id": "70990751", "address": "B\u0159e\u017eany 42, 25744 Le\u0161any"}, "geometry": {"type": "Point", "coordinates": [14.518315957104335, 49.83960067626911]}, "type": "Feature"}, {"properties": {"name": "Z\u00e1kladn\u00ed \u0161kola a Mate\u0159sk\u00e1 \u0161kola Lou\u0148ovice pod Blan\u00edkem, p\u0159\u00edsp\u011bvkov\u00e1 organizace", "id": "71004491", "address": "T\u00e1borsk\u00e1 170, 25706 Lou\u0148ovice pod Blan\u00edkem"}, "geometry": {"type": "Point", "coordinates": [14.844106199430703, 49.63432480246438]}, "type": "Feature"}, {"properties": {"name": "Z\u00e1kladn\u00ed \u0161kola a Mate\u0159sk\u00e1 \u0161kola Mili\u010d\u00edn okres Bene\u0161ov", "id": "71006648", "address": "\u010d.p. 248, 25786 Mili\u010d\u00edn"}, "geometry": {"type": "Point", "coordinates": [14.660127207159276, 49.57194477975163]}, "type": "Feature"}, {"properties": {"name": "Z\u00e1kladn\u00ed \u0161kola a mate\u0159sk\u00e1 \u0161kola Na\u010deradec, p\u0159\u00edsp\u011bvkov\u00e1 organizace", "id": "70993661", "address": "Lhoteck\u00e1 270, 25708 Na\u010deradec"}, "geometry": {"type": "Point", "coordinates": [14.907553384911893, 49.60930607889426]}, "type": "Feature"}, {"properties": {"name": "Z\u00e1kladn\u00ed \u0161kola Netvo\u0159ice, okres Bene\u0161ov, p\u0159\u00edsp\u011bvkov\u00e1 organizace", "id": "70996865", "address": "\u0160koln\u00ed 171, 25744 Netvo\u0159ice"}, "geometry": {"type": "Point", "coordinates": [14.520718357032614, 49.81882008816843]}, "type": "Feature"}, {"properties": {"name": "Z\u00e1kladn\u00ed \u0161kola Jana Kubel\u00edka, Neveklov", "id": "70990654", "address": "\u0160koln\u00ed 301, 25756 Neveklov"}, "geometry": {"type": "Point", "coordinates": [14.532350272053199, 49.75651528804311]}, "type": "Feature"}, {"properties": {"name": "Z\u00e1kladn\u00ed \u0161kola a mate\u0159sk\u00e1 \u0161kola Olbramovice, okres Bene\u0161ov", "id": "71001174", "address": "Olbramovice Ves 4, 25901 Olbramovice"}, "geometry": {"type": "Point", "coordinates": [14.640265826215025, 49.6740517294455]}, "type": "Feature"}, {"properties": {"name": "C\u00edrkevn\u00ed z\u00e1kladn\u00ed \u0161kola a mate\u0159sk\u00e1 \u0161kola ARCHA, Petroupim, okres Bene\u0161ov", "id": "63822211", "address": "\u010d.p. 49, 25601 Petroupim"}, "geometry": {"type": "Point", "coordinates": [14.752196032537492, 49.80972440569271]}, "type": "Feature"}, {"properties": {"name": "Z\u00e1kladn\u00ed \u0161kola a mate\u0159sk\u00e1 \u0161kola Po\u0159\u00ed\u010d\u00ed nad S\u00e1zavou, okres Bene\u0161ov, p\u0159\u00edsp\u011bvkov\u00e1 organizace", "id": "70991634", "address": "\u0160koln\u00ed 190, 25721 Po\u0159\u00ed\u010d\u00ed nad S\u00e1zavou"}, "geometry": {"type": "Point", "coordinates": [14.677451708130205, 49.8363589598498]}, "type": "Feature"}, {"properties": {"name": "Z\u00e1kladn\u00ed \u0161kola a Mate\u0159sk\u00e1 \u0161kola Postupice, okres Bene\u0161ov", "id": "70892598", "address": "\u0160koln\u00ed 153, 25701 Postupice"}, "geometry": {"type": "Point", "coordinates": [14.781734345202942, 49.729280601802664]}, "type": "Feature"}, {"properties": {"name": "Z\u00e1kladn\u00ed \u0161kola T. G. Masaryka", "id": "43750699", "address": "Pra\u017esk\u00e1 168, 25167 Py\u0161ely"}, "geometry": {"type": "Point", "coordinates": [14.67786199353836, 49.87506270538829]}, "type": "Feature"}, {"properties": {"name": "Z\u00e1kladn\u00ed \u0161kola a mate\u0159sk\u00e1 \u0161kola S\u00e1zava", "id": "71000585", "address": "n\u00e1m. Voskovce a Wericha 290, 28506 S\u00e1zava"}, "geometry": {"type": "Point", "coordinates": [14.902469855721561, 49.87621578137308]}, "type": "Feature"}, {"properties": {"name": "Z\u00e1kladn\u00ed \u0161kola a Mate\u0159sk\u00e1 \u0161kola Tepl\u00fd\u0161ovice, okres Bene\u0161ov", "id": "70992118", "address": "\u010ce\u0148ovice 45, 25601 Tepl\u00fd\u0161ovice"}, "geometry": {"type": "Point", "coordinates": [14.795068290136824, 49.794035304566094]}, "type": "Feature"},