{"type": "FeatureCollection", "features": [{"properties": {"name": "MESIT foundry, a.s.", "address": "Sokolovsk\u00e1 573, Ma\u0159atice, 68601 Uhersk\u00e9 Hradi\u0161t\u011b", "url": "http://www.mesit.cz", "sectors": ["AE", "AU", "HT"], "specialization": ["Investment casting of aluminium and copper based alloys including machining", "Production of injection moulds for plastics, high pressure die-casting and for investment casting"]}, "geometry": {"type": "Point", "coordinates": [17.48018605856033, 49.07450749312534]}, "type": "Feature"}, {"properties": {"name": "MediTox s.r.o.", "address": "Pod Z\u00e1mkem 279, 28125 Kon\u00e1rovice", "url": "http://www.meditox.eu", "sectors": ["BI"], "specialization": ["Experimental model of diabetes", "Safety and efficacy testing of anti-viral therapy incl. vaccines (ferret, hamster, mouse, guinea pig models)", "Complex toxicological program for preclinical (safety) evaluation of human and veterinary pharmaceuticals, biological, medical devices and food additives.", "Experimental model of cardiovascular disorders", "Model of chronic ostheoarthrosis in rabbits and spontaneous OA in guinea pigs", "Model of chronic glaucoma in dogs"]}, "geometry": {"type": "Point", "coordinates": [15.286210408683301, 50.038253425160214]}, "type": "Feature"}, {"properties": {"name": "Department of Cybernetics, Faculty of Applied Sciences, University of West Bohemia", "address": "Univerzitn\u00ed 2732/8, Ji\u017en\u00ed P\u0159edm\u011bst\u00ed, 30100 Plze\u0148", "url": "http://www.kky.zcu.cz/en", "sectors": ["IT"], "specialization": ["Advanced Real-Time Control Systems: R&D in embedded and distributed control systems, control algorithms and autotuning controllers for process control, robotics and mechatronics", "Speech Technology: automatic speech recognition, text-to-speech synthesis, voice dialogue systems, speaker identification and verification, spoken document retrieval", "Modelling, R&D of advanced diagnostics methods, SW and system development in power systems", "Identification and Decision Making: system identification, unknown parameters estimation, linear and nonlinear filters for state estimation, decision making for fault detection, optimal control, adaptive control,  adaptive systems for signal processing, tracking and positioning", "Sign Language Processing: sign language synthesis, sign language recognition, talking head"]}, "geometry": {"type": "Point", "coordinates": [13.351617863565403, 49.723789713579855]}, "type": "Feature"}, {"properties": {"name": "EVEKTOR, spol. s r.o.", "address": "Leteck\u00e1 1008, 68604 Kunovice", "url": "http://www.evektor.cz", "sectors": ["AU", "AE"], "specialization": ["Aircraft design and development", "Automotive design and development", "Stress analysis", "Design and development in the area of gardening equipment", "Advanced technology of rapid prototyping"]}, "geometry": {"type": "Point", "coordinates": [17.456603902460056, 49.03409902532254]}, "type": "Feature"}, {"properties": {"name": "BOCHEMIE a.s.", "address": "Lidick\u00e1 326, Nov\u00fd Bohum\u00edn, 73581 Bohum\u00edn", "url": "http://www.bochemie.cz/", "sectors": ["CT", "NN"], "specialization": [null]}, "geometry": {"type": "Point", "coordinates": [18.36599984600463, 49.902138735445355]}, "type": "Feature"}, {"properties": {"name": "2N TELEKOMUNIKACE a.s.", "address": "Mod\u0159ansk\u00e1 621/72, Mod\u0159any, 14300 Praha 4", "url": "http://www.2n.cz", "sectors": ["EE", "IT"], "specialization": [null]}, "geometry": {"type": "Point", "coordinates": [14.402879971300868, 50.01604613080057]}, "type": "Feature"}, {"properties": {"name": "Acision", "address": "Na okraji 335/42, Veleslav\u00edn, 16200 Praha 6", "url": "http://www.acision.com", "sectors": ["IT"], "specialization": [null]}, "geometry": {"type": "Point", "coordinates": [14.342122990050363, 50.08918405891713]}, "type": "Feature"}, {"properties": {"name": "ADP Employer Services \u010cesk\u00e1 republika, a.s.", "address": "\u0158evnick\u00e1 170/4, T\u0159ebonice, 15521 Praha 5", "url": "http://www.adp.com", "sectors": ["Outsourcing"], "specialization": [null]}, "geometry": {"type": "Point", "coordinates": [14.288831396379823, 50.05599959543625]}, "type": "Feature"}, {"properties": {"name": "ALTRON, a. s.", "address": "Novodvorsk\u00e1 994/138, Bran\u00edk, 14200 Praha 4", "url": "http://www.altron.cz", "sectors": ["IT"], "specialization": [null]}, "geometry": {"type": "Point", "coordinates": [14.430801602897137, 50.02764830042293]}, "type": "Feature"}, {"properties": {"name": "Asseco Solutions, a.s.", "address": "Zelen\u00fd pruh 1560/99, Bran\u00edk, 14000 Praha 4", "url": "http://www.assecosolutions.eu", "sectors": ["IT"], "specialization": [null]}, "geometry": {"type": "Point", "coordinates": [14.429028985681036, 50.0396562377096]}, "type": "Feature"}, {"properties": {"name": "Crytur, spol. s r.o.", "address": "Palack\u00e9ho 175, 51101 Turnov", "url": "http://www.crytur.cz", "sectors": ["EE", "NN"], "specialization": ["Electron microscopy", "Lasers and laser optics", "Coatings", "Sapphire profiles", "Precision optics and LED technologies", "Scintillators", "Precision optics"]}, "geometry": {"type": "Point", "coordinates": [15.151822980400423, 50.58769434184016]}, "type": "Feature"}, {"properties": {"name": "ELMARCO s.r.o.", "address": "Sv\u00e1rovsk\u00e1 621, Liberec XI-R\u016f\u017eodol I, 46001 Liberec", "url": "http://www.elmarco.com", "sectors": ["NN"], "specialization": ["Elmarco offers innovative production equipment, based on NanospiderTM needle-free electrospinning technology \u2013 laboratory units and production lines for high volume industrial production nanofiber material."]}, "geometry": {"type": "Point", "coordinates": [15.021118604824682, 50.78120822832261]}, "type": "Feature"}, {"properties": {"name": "GENERI BIOTECH s.r.o.", "address": "Machkova 587/42, T\u0159ebe\u0161, 50011 Hradec Kr\u00e1lov\u00e9", "url": "http://www.generi-biotech.com", "sectors": ["BI"], "specialization": ["Oligonucleotide synthesis", "Molecular diagnostics", "Analysis of nucleic acids (compliance with GMP, GLP)"]}, "geometry": {"type": "Point", "coordinates": [15.829321937159627, 50.18735721506229]}, "type": "Feature"}, {"properties": {"name": "Institute of Organic Chemistry and Biochemistry Academy of Science of  Czech Republic, v.v.i.", "address": "Flemingovo n\u00e1m\u011bst\u00ed 542/2, Dejvice, 16000 Praha 6", "url": "http://www.uochb.cas.cz", "sectors": ["BI"], "specialization": ["Bioorganic and Medicinal Chemistry", "Biochemistry and molecular biology", "Organic synthesis", "Chemistry of natural products", "Spectroscopy and Physical Organic Chemistry", "Computational chemistry"]}, "geometry": {"type": "Point", "coordinates": [14.391457238756924, 50.10572971798964]}, "type": "Feature"}, {"properties": {"name": "Department of Measurement, Faculty of Electrical Engineering, Czech Technical University in Prague", "address": "Technick\u00e1 1902/2, Dejvice, 16000 Praha 6", "url": "http://measure.feld.cvut.cz", "sectors": ["EE"], "specialization": ["AD/DA converters, measurement systems and videometry", "Sensors and magnetics: magnetic sensors, sensor systems, magnetometers, space instrumentation, magnetic measurements and modelling", "Automotive and aerospace systems and instruments, embedded and distributed systems", "Diagnostics, fault detection, non-destructive testing, advanced signal processing, testing of wireless network, quality and usability testing", "Metrology of electrical quantities: methods and facilities for calibration of resistance, capacitance and inductance standards, metrological applicability of DC and AC quantum Hall effect."]}, "geometry": {"type": "Point", "coordinates": [14.392381194965946, 50.102638283784444]}, "type": "Feature"}, {"properties": {"name": "V\u00daTS, a.s.", "address": "U Jezu 525/4, Liberec IV-Per\u0161t\u00fdn, 46001 Liberec", "url": "http://www.vuts.cz", "sectors": ["HT"], "specialization": ["Measuring - development and manufacturing of electronic measuring devices.", "Mathematical calculations - simulating and optimizing the mechanims, calculating with FEM method, solving dynamic tasks, numercial modeling of flow", "Mechatronics - development and implementation of electronic cams", "Automatization - Development and design of single-purpose machines for manufacturing industry", "Precise manufacturing of complicated machine\u00b4s parts or complete machines"]}, "geometry": {"type": "Point", "coordinates": [15.053770241355659, 50.763894441911994]}, "type": "Feature"}, {"properties": {"name": "SVOBI Associates s.r.o. (p\u016fv. Circle Line Associates spol s r.o., pot\u00e9 Hutman Diagnostics CZ)", "address": "\u017dateck\u00fdch 842/3, Nusle, 14000 Praha 4", "url": "http://www.svobi.ch", "sectors": ["BI"], "specialization": ["Invention technology transfer", "IP management", "Quality management and certifications, market access strategies and support"]}, "geometry": {"type": "Point", "coordinates": [14.434048959944672, 50.06057227606679]}, "type": "Feature"}, {"properties": {"name": "AB Pharma s.r.o.", "address": "Z\u00e1most\u00ed 683/3, Mal\u0161ovice, 50009 Hradec Kr\u00e1lov\u00e9", "url": "http://www.abpharma.cz", "sectors": ["BI", "CT"], "specialization": [null]}, "geometry": {"type": "Point", "coordinates": [15.85153051126707, 50.20553857275173]}, "type": "Feature"}, {"properties": {"name": "Department of Cybernetics, Faculty of Electrical Engineering, Czech Technical University in Prague", "address": "Technick\u00e1 1902/2, Dejvice, 16000 Praha 6", "url": "http://cyber.felk.cvut.cz/", "sectors": ["IT"], "specialization": ["general", "Agent Technology: multi-agent systems and their applications (decentralized planning and coordination,  simulation, network security, traffic control, systems diagnostics)", "Computer Vision: 3D reconstruction, visual recognition and detection, video surveillance and tracking, medical imaging, visual inspection and quality control", "Mobile Robotics: Intelligent control of mobile robots, team cooperation of human-robot entities, automated sensing of environment, sensor data fusion, robot navigation in outdoor or indoor environments", "Data Mining, Pattern Recognition: analysis of and knowledge discovery from databases, data modeling and pattern detection in various data domains (production, marketing, genomics, and biomedicine), evolutionary computation.", "Biomedical Engineering: Smart Assistive Tools and user interfaces for on-line monitoring and tele-care applications in homecare, Biological Data and Signal Processing and Visualization, Decision Support Systems in Medicine."]}, "geometry": {"type": "Point", "coordinates": [14.392381194965946, 50.102638283784444]}, "type": "Feature"}, {"properties": {"name": "CERTICON a.s.", "address": "Evropsk\u00e1 2758/11, Dejvice, 16000 Praha 6", "url": "http://www.certiconglobal.com", "sectors": ["BI", "IT"], "specialization": ["Outsourcing of software development and testing", "Industry 4.0, production optimization and decision support solutions", "Healthcare and mobile e-health solutions", "ASIC design, HW prototyping and embedded systems", "Computer vision solutions"]}, "geometry": {"type": "Point", "coordinates": [14.390913972199993, 50.100170022020194]}, "type": "Feature"}, {"properties": {"name": "Czech Space Alliance", "address": "Evropsk\u00e1 657/120, Dejvice, 16000 Praha 6", "url": "http://www.czechspace.eu", "sectors": [], "specialization": [null]}, "geometry": {"type": "Point", "coordinates": [14.367116351577703, 50.099053194542854]}, "type": "Feature"}, {"properties": {"name": "Noliac Systems s.r.o.", "address": "Za Mototechnou 1114/4, Stod\u016flky, 15500 Praha 5", "url": "http://www.noliac.com/", "sectors": ["EE"], "specialization": [null]}, "geometry": {"type": "Point", "coordinates": [14.328826101455103, 50.058228265954]}, "type": "Feature"}, {"properties": {"name": "OEZ s.r.o.", "address": "\u0160edivsk\u00e1 339, 56151 Letohrad", "url": "http://www.oez.cz", "sectors": ["EE"], "specialization": [null]}, "geometry": {"type": "Point", "coordinates": [16.508710902612542, 50.0374587309171]}, "type": "Feature"}, {"properties": {"name": "ANECT a.s.", "address": "V\u00edde\u0148sk\u00e1 204/125, P\u0159\u00edz\u0159enice, 61900 Brno", "url": "http://www.anect.com", "sectors": ["IT"], "specialization": [null]}, "geometry": {"type": "Point", "coordinates": [16.602542175453102, 49.147893064961856]}, "type": "Feature"}, {"properties": {"name": "Bull s.r.o.", "address": "Lazarsk\u00e1 6/2, Nov\u00e9 M\u011bsto, 12000 Praha 2", "url": "http://www.bull.cz", "sectors": ["IT"], "specialization": [null]}, "geometry": {"type": "Point", "coordinates": [14.419857577429989, 50.0791451538421]}, "type": "Feature"}, {"properties": {"name": "Gaben spol. s r. o.", "address": "H\u00e1jkova 558/1, P\u0159\u00edvoz, 70200 Ostrava", "url": "http://www.gaben.cz", "sectors": ["EE", "IT"], "specialization": ["RFID technology in Automatic Identification"]}, "geometry": {"type": "Point", "coordinates": [18.27735970406678, 49.853955998352575]}, "type": "Feature"}, {"properties": {"name": "JAKAPE s.r.o.", "address": "Z\u00e1brdovick\u00e1 15/16, Z\u00e1brdovice, 61500 Brno", "url": "http://www.jakape.cz", "sectors": ["HT"], "specialization": [null]}, "geometry": {"type": "Point", "coordinates": [16.632003025318426, 49.20110941354572]}, "type": "Feature"}, {"properties": {"name": "J - VST, s.r.o.", "address": "Ulrychova 908/67, Kom\u00edn, 62400 Brno", "url": "http://www.j-vst.eu", "sectors": ["HT"], "specialization": [null]}, "geometry": {"type": "Point", "coordinates": [16.550497784079234, 49.22427634377581]}, "type": "Feature"}, {"properties": {"name": "ROmiLL, spol. s r.o.", "address": "Tkalcovsk\u00e1 799/14, Z\u00e1brdovice, 60200 Brno", "url": "http://www.romill.cz", "sectors": ["BI", "CT"], "specialization": ["Microwave heating and drying", "Agricultural technology"]}, "geometry": {"type": "Point", "coordinates": [16.62820141975641, 49.19677524657966]}, "type": "Feature"}, {"properties": {"name": "CAN SUPERCONDUCTORS, s.r.o.", "address": "Ringhofferova 66, 25168 Kamenice", "url": "http://www.can-superconductors.com", "sectors": ["EE", "NN"], "specialization": ["Bi-2223 Superconducting magnetic shields", "High temperature YBCO bulk superconductors for applications using the effect of magnetic levitation", "Bi-2223 superconducting current leads"]}, "geometry": {"type": "Point", "coordinates": [14.5842056521328, 49.89675302965354]}, "type": "Feature"}, {"properties": {"name": "Department of Engineering Technology, Technical University of Liberec", "address": "Studentsk\u00e1 1402/2, Liberec I-Star\u00e9 M\u011bsto, 46001 Liberec", "url": "http://www.ksp.tul.cz", "sectors": ["NN", "HT"], "specialization": ["Department of Plastics Processing", "Department of Metal Forming", "Department of Welding", "Department of Casting"]}, "geometry": {"type": "Point", "coordinates": [15.074816941399662, 50.77314562076441]}, "type": "Feature"}, {"properties": {"name": "IQ Structures s.r.o.", "address": "\u010cimick\u00e1 819/86a, Bohnice, 18200 Praha 8", "url": "http://www.iqstructures.com", "sectors": ["NN"], "specialization": ["Nano optics for LED lighting", "Nano optics for Automotive lighting", "Anti-counterfeiting protection"]}, "geometry": {"type": "Point", "coordinates": [14.437418756579905, 50.127568931263205]}, "type": "Feature"}, {"properties": {"name": "LASAK s.r.o.", "address": "\u010ceskobrodsk\u00e1 1047/46, Hloub\u011bt\u00edn, 19000 Praha 9", "url": "http://www.lasak.cz", "sectors": ["BI", "NN"], "specialization": ["Treatment of cranio defects", "Neurosurgery", "Bone regeneration", "Dental implantology"]}, "geometry": {"type": "Point", "coordinates": [14.525936113888376, 50.093104366198936]}, "type": "Feature"}, {"properties": {"name": "ABB s. r. o.", "address": "\u0160t\u011btkova 1638/18, Nusle, 14000 Praha 4", "url": "http://new.abb.com/cz", "sectors": ["EE"], "specialization": [null]}, "geometry": {"type": "Point", "coordinates": [14.430227490158316, 50.060021366125035]}, "type": "Feature"}, {"properties": {"name": "BioDevice Systems s.r.o.", "address": "Bulharsk\u00e1 996/20, Vr\u0161ovice, 10100 Praha 10", "url": "http://www.biodevicesystems.com/", "sectors": ["BI"], "specialization": [null]}, "geometry": {"type": "Point", "coordinates": [14.459963121324568, 50.0717417190878]}, "type": "Feature"}, {"properties": {"name": "Iveco Czech Republic, a. s.", "address": "Dobrovsk\u00e9ho 74, Pra\u017esk\u00e9 P\u0159edm\u011bst\u00ed, 56601 Vysok\u00e9 M\u00fdto", "url": "http://None", "sectors": ["AU"], "specialization": [null]}, "geometry": {"type": "Point", "coordinates": [16.15398220840207, 49.95589497476569]}, "type": "Feature"}, {"properties": {"name": "LOM PRAHA s.p.", "address": "Tiska\u0159sk\u00e1 270/8, Male\u0161ice, 10800 Praha 10", "url": "http://www.lompraha.cz/", "sectors": ["AU"], "specialization": [null]}, "geometry": {"type": "Point", "coordinates": [14.527712794241507, 50.08177016374972]}, "type": "Feature"}, {"properties": {"name": "MEDIWARE a.s.", "address": "Evropsk\u00e1 655/116, Dejvice, 16000 Praha 6", "url": "http://www.mediware.cz/", "sectors": ["BI", "IT"], "specialization": [null]}, "geometry": {"type": "Point", "coordinates": [14.368020506079535, 50.09911783737245]}, "type": "Feature"}, {"properties": {"name": "Roplass s.r.o.", "address": "U vod\u00e1rny 2965/2, Kr\u00e1lovo Pole, 61600 Brno", "url": "http://www.roplass.cz/", "sectors": ["NN"], "specialization": [null]}, "geometry": {"type": "Point", "coordinates": [16.574726193169866, 49.224033192597055]}, "type": "Feature"}, {"properties": {"name": "SPADIA LAB, a.s.", "address": "Dr. Mart\u00ednka 1491/7, Hrab\u016fvka, 70030 Ostrava", "url": "http://www.spadia.cz/", "sectors": ["BI"], "specialization": [null]}, "geometry": {"type": "Point", "coordinates": [18.258648021913896, 49.785998750337406]}, "type": "Feature"}, {"properties": {"name": "Solirax CoreDev s.r.o. (d\u0159\u00edve VR Union Ltd.)_x000D_\nSolirax CoreDev s.r.o. (d\u0159\u00edve VR Union Ltd.)", "address": "Jeremenkova 763/88, Podol\u00ed, 14000 Praha 4", "url": "http://vrunion.com/", "sectors": ["EE", "IT"], "specialization": [null]}, "geometry": {"type": "Point", "coordinates": [14.428401304630398, 50.043199481205185]}, "type": "Feature"}, {"properties": {"name": "Sobriety s.r.o.", "address": "n\u00e1m. 1. kv\u011btna 63/20, 66434 Ku\u0159im", "url": "http://www.sobriety.cz/", "sectors": ["EE", "HT", "IT"], "specialization": [null]}, "geometry": {"type": "Point", "coordinates": [16.530124915522293, 49.29826432024127]}, "type": "Feature"}, {"properties": {"name": "MARAT engineering s.r.o.", "address": "V Pol\u00edch 199/12, P\u0159\u00edz\u0159enice, 61900 Brno", "url": "http://www.marat.cz/", "sectors": ["AU"], "specialization": [null]}, "geometry": {"type": "Point", "coordinates": [16.62327393352639, 49.147737134371475]}, "type": "Feature"}, {"properties": {"name": "Medingo s.r.o.", "address": "Sibi\u0159sk\u00e1 526/35, \u0158e\u010dkovice, 62100 Brno", "url": "http://www.medingo.cz/", "sectors": ["BI", "IT"], "specialization": [null]}, "geometry": {"type": "Point", "coordinates": [16.579935787319826, 49.24428983878666]}, "type": "Feature"}, {"properties": {"name": "HESTEGO a.s.", "address": "Na Nouzce 470/7, Vy\u0161kov-M\u011bsto, 68201 Vy\u0161kov", "url": "http://www.hestego.cz/", "sectors": ["HT"], "specialization": [null]}, "geometry": {"type": "Point", "coordinates": [16.982997315935958, 49.26524447354532]}, "type": "Feature"}, {"properties": {"name": "CENTRUM HYDRAULICK\u00c9HO V\u00ddZKUMU spol. s r.o.", "address": "Jana Sigmunda 190, 78349 Lut\u00edn", "url": "http://www.sigmagroup.cz/", "sectors": ["CT", "HT"], "specialization": [null]}, "geometry": {"type": "Point", "coordinates": [17.13568759609407, 49.55230736139948]}, "type": "Feature"}, {"properties": {"name": "CNC Technology, spol s.r.o.", "address": "Evropsk\u00e1 423/178, Vokovice, 16000 Praha 6", "url": "http://www.cnctech.cz/", "sectors": ["HT"], "specialization": [null]}, "geometry": {"type": "Point", "coordinates": [14.338461984698455, 50.09522888540588]}, "type": "Feature"}, {"properties": {"name": "Magna Exteriors & Interiors (Bohemia) s.r.o.", "address": "Kubel\u00edkova 604/73, Liberec VI-Rochlice, 46006 Liberec", "url": "http://www.magnabohemia.cz/", "sectors": ["AU"], "specialization": [null]}, "geometry": {"type": "Point", "coordinates": [15.039517698969158, 50.745831629333125]}, "type": "Feature"}, {"properties": {"name": "Render Legion s.r.o.", "address": "Opatovick\u00e1 160/18, Nov\u00e9 M\u011bsto, 11000 Praha 1", "url": "https://corona-renderer.com/", "sectors": ["IT"], "specialization": [null]}, "geometry": {"type": "Point", "coordinates": [14.41834749821432, 50.079728159321505]}, "type": "Feature"}, {"properties": {"name": "InStar Technologies a.s.", "address": "n\u00e1m\u011bst\u00ed Tom\u00e1\u0161e Bati 419, 39102 Sezimovo \u00dast\u00ed", "url": "http://www.instartechnologies.cz/", "sectors": ["BI", "NN"], "specialization": [null]}, "geometry": {"type": "Point", "coordinates": [14.697965589115054, 49.37597333019832]}, "type": "Feature"}, {"properties": {"name": "TESLA LIGHTING s.r.o.", "address": "Na b\u0159ehu 468/37, Vyso\u010dany, 19000 Praha 9", "url": "http://www.tesla-lighting.cz/", "sectors": ["EE"], "specialization": ["Designing in DIALUX", "LED lighting \u2013 development, production, sales", "Photometric laboratory TESLA"]}, "geometry": {"type": "Point", "coordinates": [14.500738357053377, 50.10762645213991]}, "type": "Feature"}, {"properties": {"name": "FLYDEO s.r.o.", "address": "U Rybn\u00edka 3243/17, 46601 Jablonec nad Nisou", "url": "http://flydeo.com/", "sectors": ["AE", "EE"], "specialization": [null]}, "geometry": {"type": "Point", "coordinates": [15.173112137055966, 50.73111342023759]}, "type": "Feature"}, {"properties": {"name": "HE3DA s.r.o.", "address": "Beranov\u00fdch 130, Let\u0148any, 19900 Praha 9", "url": "http://www.he3da.cz/", "sectors": ["AU", "CT", "EE", "NN"], "specialization": [null]}, "geometry": {"type": "Point", "coordinates": [14.514350344516437, 50.13296688974624]}, "type": "Feature"}, {"properties": {"name": "V\u00fdzkumn\u00fd \u00dastav \u017delezni\u010dn\u00ed, a.s.", "address": "Novodvorsk\u00e1 1698/138, Bran\u00edk, 14200 Praha 4", "url": "http://www.cdvuz.cz/", "sectors": ["HT"], "specialization": [null]}, "geometry": {"type": "Point", "coordinates": [14.429760754255014, 50.02817519501333]}, "type": "Feature"}, {"properties": {"name": "MEDETRON s.r.o.", "address": "Vavre\u010dkova 5673, 76001 Zl\u00edn", "url": "http://www.medetron.cz/", "sectors": ["BI"], "specialization": [null]}, "geometry": {"type": "Point", "coordinates": [17.653587894666146, 49.223170835657584]}, "type": "Feature"}, {"properties": {"name": "NWT a.s.", "address": "t\u0159\u00edda Tom\u00e1\u0161e Bati 269, Pr\u0161tn\u00e9, 76001 Zl\u00edn", "url": "http://www.nwt.cz/", "sectors": ["BI", "CT", "IT"], "specialization": [null]}, "geometry": {"type": "Point", "coordinates": [17.63993792067208, 49.22006524239811]}, "type": "Feature"}, {"properties": {"name": "VAKOS XT a.s.", "address": "Pernerova 646/28a, Karl\u00edn, 18600 Praha 8", "url": "http://www.vakosxt.cz/", "sectors": ["BI"], "specialization": [null]}, "geometry": {"type": "Point", "coordinates": [14.452489460674402, 50.09051491531105]}, "type": "Feature"}, {"properties": {"name": "Kerio Technologies, s.r.o.", "address": "Anglick\u00e9 n\u00e1b\u0159e\u017e\u00ed 2434/1, V\u00fdchodn\u00ed P\u0159edm\u011bst\u00ed, 30100 Plze\u0148", "url": "http://www.kerio.cz/", "sectors": ["IT"], "specialization": [null]}, "geometry": {"type": "Point", "coordinates": [13.382808346469108, 49.74618269154241]}, "type": "Feature"}, {"properties": {"name": "EGE, spol. s r.o.", "address": "Novohradsk\u00e1 397/34, \u010cesk\u00e9 Bud\u011bjovice 6, 37001 \u010cesk\u00e9 Bud\u011bjovice", "url": "http://www.ege.cz/", "sectors": ["CT", "EE", "HT"], "specialization": [null]}, "geometry": {"type": "Point", "coordinates": [14.487153186129772, 48.965560508151505]}, "type": "Feature"}, {"properties": {"name": "BONATRANS GROUP A.S.", "address": "Revolu\u010dn\u00ed 1234, Nov\u00fd Bohum\u00edn, 73581 Bohum\u00edn", "url": "http://www.bonatrans.cz/", "sectors": ["HT"], "specialization": [null]}, "geometry": {"type": "Point", "coordinates": [18.351187863545842, 49.888521271553934]}, "type": "Feature"}, {"properties": {"name": "JUTA a.s.", "address": "Dukelsk\u00e1 417, 54401 Dv\u016fr Kr\u00e1lov\u00e9 nad Labem", "url": "http://www.juta.cz/", "sectors": ["NN"], "specialization": [null]}, "geometry": {"type": "Point", "coordinates": [15.81709875329353, 50.430743601453926]}, "type": "Feature"}, {"properties": {"name": "BRISK T\u00e1bor a.s.", "address": "Vo\u017eick\u00e1 2068, 39002 T\u00e1bor", "url": "http://www.brisk.cz", "sectors": ["AU"], "specialization": [null]}, "geometry": {"type": "Point", "coordinates": [14.685548596143997, 49.415849013629135]}, "type": "Feature"}, {"properties": {"name": "ZETOR TRACTORS a. s.", "address": "Trnkova 3060/111, L\u00ed\u0161e\u0148, 62800 Brno", "url": "http://www.zetor.cz/", "sectors": ["AU"], "specialization": [null]}, "geometry": {"type": "Point", "coordinates": [16.672186103939012, 49.19901421408548]}, "type": "Feature"}, {"properties": {"name": "TATRA TRUCKS a.s.", "address": "Are\u00e1l Tatry 1450/1, 74221 Kop\u0159ivnice", "url": "http://www.tatra.cz/", "sectors": ["AU"], "specialization": [null]}, "geometry": {"type": "Point", "coordinates": [18.15052106893447, 49.59847002631024]}, "type": "Feature"}, {"properties": {"name": "SAND TEAM, spol. s r.o.", "address": "\u010d.p. 331, 68351 Holubice", "url": "http://www.sandteam.cz/", "sectors": ["HT", "NN"], "specialization": [null]}, "geometry": {"type": "Point", "coordinates": [16.819932690738423, 49.18000244495212]}, "type": "Feature"}, {"properties": {"name": "KYBERTEC, s.r.o.", "address": "Tov\u00e1rn\u00ed 1112, Chrudim IV, 53701 Chrudim", "url": "http://www.kybertec.com/", "sectors": ["EE", "IT"], "specialization": [null]}, "geometry": {"type": "Point", "coordinates": [15.79550443707579, 49.95506192497494]}, "type": "Feature"}, {"properties": {"name": "Argotech a.s.", "address": "N\u00e1chodsk\u00e1 529, Po\u0159\u00ed\u010d\u00ed, 54101 Trutnov", "url": "http://www.argotech.cz/", "sectors": ["EE"], "specialization": ["Design for RFoG", "AOC", "Microassembly"]}, "geometry": {"type": "Point", "coordinates": [15.944135434873447, 50.57246082921017]}, "type": "Feature"}, {"properties": {"name": "Primoco UAV SE", "address": "Pr\u016fmyslov\u00e1 1472/11, Hostiva\u0159, 10200 Praha 10", "url": "http://www.uav-stol.com/", "sectors": ["AE", "EE"], "specialization": [null]}, "geometry": {"type": "Point", "coordinates": [14.535835676579872, 50.06630358107172]}, "type": "Feature"}, {"properties": {"name": "MICONEX s.r.o.", "address": "V Hork\u00e1ch 76/18, Liberec IX-Jan\u016fv D\u016fl, 46007 Liberec", "url": "http://www.miconex.cz/", "sectors": ["HT"], "specialization": [null]}, "geometry": {"type": "Point", "coordinates": [15.027922234970296, 50.75219928130056]}, "type": "Feature"}, {"properties": {"name": "Mycroft Mind, a.s.", "address": "Botanick\u00e1 554/68a, Ponava, 60200 Brno", "url": "http://www.mycroftmind.cz/", "sectors": ["IT"], "specialization": [null]}, "geometry": {"type": "Point", "coordinates": [16.59893258741445, 49.210010954949944]}, "type": "Feature"}, {"properties": {"name": "B&C DOPRAVN\u00cd SYST\u00c9MY s.r.o.", "address": "Husova 517, 41117 Libochovice", "url": "http://www.bcds.cz/", "sectors": ["AU", "IT"], "specialization": [null]}, "geometry": {"type": "Point", "coordinates": [14.046900928313105, 50.40980132912924]}, "type": "Feature"}, {"properties": {"name": "M-line a.s.", "address": "Pek\u00e1rensk\u00e1 255/77, \u010cesk\u00e9 Bud\u011bjovice 4, 37004 \u010cesk\u00e9 Bud\u011bjovice", "url": "http://www.m-line.cz/", "sectors": ["AU", "IT"], "specialization": [null]}, "geometry": {"type": "Point", "coordinates": [14.492601693394562, 48.98233123406383]}, "type": "Feature"}, {"properties": {"name": "BRUSH SEM s.r.o.", "address": "Edvarda Bene\u0161e 564/39, Doudlevce, 30100 Plze\u0148", "url": "http://www.brush-sem.cz", "sectors": ["EE", "CT"], "specialization": ["Research & development, design and manufacturing of turbogenerators", "Repairs, assembly, commissioning and aftermarket services of generators BRUSH and other producers", "Research & development, design, manufacturing, repairs and aftermarket services of excitation systems."]}, "geometry": {"type": "Point", "coordinates": [13.380496215996434, 49.72120930581759]}, "type": "Feature"}, {"properties": {"name": "HONEYWELL, spol. s r. o.", "address": "V parku 2326/18, Chodov, 14800 Praha 4", "url": "http://www.honeywell.com", "sectors": ["AE", "AU", "EE", "HT", "IT"], "specialization": ["Honeywell"]}, "geometry": {"type": "Point", "coordinates": [14.496932239780753, 50.027076721383324]}, "type": "Feature"}, {"properties": {"name": "\u00dastav teorie informace a automatizace AV \u010cR, v.v.i.", "address": "Pod vod\u00e1renskou v\u011b\u017e\u00ed 1143/4, Libe\u0148, 18200 Praha 8", "url": "http://www.utia.cas.cz", "sectors": ["IT", "EE"], "specialization": ["Institute of Information Theory and Automation of the Automation of the AS CR v.v.i."]}, "geometry": {"type": "Point", "coordinates": [14.470028619290298, 50.122905411353976]}, "type": "Feature"}, {"properties": {"name": "\u00dastav fyziky plazmatu AV \u010cR, v.v.i.", "address": "Za Slovankou 1782/3, Libe\u0148, 18200 Praha 8", "url": "http://www.ipp.cas.cz", "sectors": ["CT", "NN"], "specialization": ["Tokamak Department", "Laser Plasma Department", "Materials Engineering and Thermal Plasma", "Pulse Plasma Systems", "TOPTEC Centre"]}, "geometry": {"type": "Point", "coordinates": [14.46425418774359, 50.123526919543195]}, "type": "Feature"}, {"properties": {"name": "Institute of Physics AS CR", "address": "Na Slovance 1999/2, Libe\u0148, 18200 Praha 8", "url": "http://www.fzu.cz", "sectors": ["NN", "HT"], "specialization": ["Research in elementary particle physics is carried out mostly within broad international collaboration. We participate in experiments at the large accelerators in CERN (Switzerland, France) and Fermilab (USA), where the deepest structure of matter and forces governing the microcosm are studied. Our activities in the development of particle detectors are closely connected.", "The physics of condensed systems is focused on dynamical and cooperative phenomena in disordered and inhomogeneous materials, and in systems with reduced spatial dimensions. The main objects of interest are condensed materials exhibiting prominent physical properties, or subject to extreme conditions. We deal with preparation and research of functional materials, such as composites, superconductors, liquid crystals, and shape memory alloys, in the form of single crystals, polycrystals, nanostructured materials, thin films and coatings, combining theoretical, experimental and novel technological approaches.", "The research in the domain of solid state physics is oriented towards new forms of solids, new physical phenomena and principles of microelectronic components. The properties of new materials are determined by their surface, defects, nanometric, layered or aperiodic structure. Characteristic is the interconnection of advanced technologies of preparation, unique methods of their characterisation in a broad range of external conditions, down to nanometric and atomic level, as well as processing of results with the aid of microphysical and ab-initio theoretical calculations. Great attention is paid to magnetic and optically active materials, nanocrystalline forms of silicon, III-V semiconductors, diamond and graphite, as well as to nanostructures for applications in medicine and microelectronics.", "The preparation of new optical materials for optoelectronics is based on use of new plasma and hybrid techniques. The research in the field of quantum optics is focused on development of various types of sources of quantum-correlated photon pairs and on devices for transmission of underlying information.", "In the field of High Power Photonics, IOP studies lasers and laser produced plasmas. The HiLASE laser centre (www.hilase.cz) is the spin-off of the terawatt iodine laser system PALS. HiLASE project focuses on the research and experimental development of novel high energy, pulsed diode-pumped solid state laser systems with high repetition rates and average output power on kW level. The HiLASE laser systems are significantly more powerful, compact, efficient and offer an easier maintenance than other available sources. Therefore, they have a great potential not only in basic science but also in applied research and high-tech industry, mostly in micro-machining technologies, testing resistance of optical materials, cutting, welding, removal of deposits and laser-shock peening.", "ELI Beamlines is the Czech part of the distributed RI creating a new generation of secondary sources for interdisciplinary applications in physics, medicine, biology and material sciences._x000D_\nELI Beamlines is part of a European plan to build a new generation of large research facilities selected by the European Strategy Forum for Research Infrastructures (ESFRI). The main goal of ELI is to create one of the latest laser equipment in the world. There will be accomplished and implemented research projects covering the interaction of light with matter at intensity being many times higher than currently achievable values. ELI will provide ultra-short laser pulses of a few femtoseconds (10-15 fs) duration and give performance up to 10 PW. ELI will bring new techniques for medical image-display and diagnostics, radiotherapy, tools for new materials developing and testing, latest in X-ray optics, etc. ELI will also be an attractive platform for educating a new generation of scientists. More information about the ELI Beamlines project is available at www.eli-beams.eu"]}, "geometry": {"type": "Point", "coordinates": [14.469025367615883, 50.1240252449512]}, "type": "Feature"}, {"properties": {"name": "AURA - engineering Hranice s.r.o.", "address": "Jan\u00e1\u010dkova 733, Hranice I-M\u011bsto, 75301 Hranice", "url": "http://www.auring.cz", "sectors": ["EE", "HT"], "specialization": ["Design and manufacture of wrapping machines for the production of the final frame shapes using glass or carbon fiber", "Design and manufacture of robotic assembly lines 5. doors for BMW I3 Concept", "Development and design of robotic lines ceiling panels for Porsche Cayenne", "Development and design slush lines for the manufacture of PVC surfaces"]}, "geometry": {"type": "Point", "coordinates": [17.73430037798051, 49.549251943137016]}, "type": "Feature"}, {"properties": {"name": "ATEKO a.s.", "address": "Resslova 956/13, 50002 Hradec Kr\u00e1lov\u00e9", "url": "http://www.ateko.cz", "sectors": ["CT", "HT"], "specialization": ["Turbomachines: helium (or other gas) turbocirculators (TC) and turboexpanders (HET)", "Gas treatment technologies: radon reduction system, drying technology of natural gas outlet from underground storage, adsorption drying stations", "Refrigeration and cryogenic technologies", "Equipments for the Chemical, Engineering and Food Industries - Construction of large storage tanks, Storing technology for inflammable liquids, Apparatus for industry", "Alternative sources of energy"]}, "geometry": {"type": "Point", "coordinates": [15.824089648892908, 50.21615216939896]}, "type": "Feature"}, {"properties": {"name": "Optical Physics Group, Department of Physical Electronics, Faculty of Nuclear Sciences and Physical Engineering, Czech Technical University in Prague", "address": "V Hole\u0161ovi\u010dk\u00e1ch 747/2, Libe\u0148, 18000 Praha 8", "url": "http://optics.fjfi.cvut.cz", "sectors": ["EE", "HT"], "specialization": ["Holography and diffractive optics", "Photonic structures and nanostructures"]}, "geometry": {"type": "Point", "coordinates": [14.44891295080073, 50.11533118077791]}, "type": "Feature"}, {"properties": {"name": "Skill s.r.o.", "address": "Sokolovsk\u00e1 192/79, Karl\u00edn, 18000 Praha 8", "url": "http://www.skill.cz", "sectors": ["IT", "EE", "HT"], "specialization": ["SKILL Inc."]}, "geometry": {"type": "Point", "coordinates": [14.449850389163919, 50.09388456300109]}, "type": "Feature"}, {"properties": {"name": "VR Group, a.s.", "address": "Tiska\u0159sk\u00e1 270/8, Male\u0161ice, 10800 Praha 10", "url": "http://www.vrg.cz", "sectors": ["EE", "AE", "IT"], "specialization": ["Individual simulators for jet aircrafts, especially of Czech production \u2013 L39, L-159 a L39NG", "Simulation centres for tactical air force training", "Simulation centres for tactical training", "Indoor laser shooting ranges", "Simulation systems for training of Integrated emergency system units, emergency committees and training of critical infrastructure entities"]}, "geometry": {"type": "Point", "coordinates": [14.527712794241507, 50.08177016374972]}, "type": "Feature"}, {"properties": {"name": "MU Brno, Fakulta informatiky", "address": "Botanick\u00e1 554/68a, Ponava, 60200 Brno", "url": "http://l202.fi.muni.cz?tpl=contact&lang=cs", "sectors": ["IT"], "specialization": ["Faculty of Informatics and Institute of Computer Science, Masaryk University"]}, "geometry": {"type": "Point", "coordinates": [16.59893258741445, 49.210010954949944]}, "type": "Feature"}, {"properties": {"name": "Univerzita Tom\u00e1\u0161e Bati ve Zl\u00edn\u011b / Fakulta technologick\u00e1", "address": "n\u00e1m. T. G. Masaryka 5555, 76001 Zl\u00edn", "url": "http://www.utb.cz/ft", "sectors": ["CT", "EE", "NN"], "specialization": [null]}, "geometry": {"type": "Point", "coordinates": [17.66490049547885, 49.222598501598846]}, "type": "Feature"}, {"properties": {"name": "AppGenics s.r.o.", "address": "N\u00e1dra\u017en\u00ed 745/4, Brand\u00fds nad Labem, 25001 Brand\u00fds nad Labem-Star\u00e1 Boleslav", "url": "http://www.gate2biotech.com", "sectors": ["BI"], "specialization": [null]}, "geometry": {"type": "Point", "coordinates": [14.655158355483628, 50.18415295926371]}, "type": "Feature"}, {"properties": {"name": "BioApex,s.r.o.", "address": "\u0160lechtitel\u016f 813/21, Holice, 77900 Olomouc", "url": "http://www.bioapex.cz", "sectors": ["BI"], "specialization": [null]}, "geometry": {"type": "Point", "coordinates": [17.2818841582204, 49.57607361730856]}, "type": "Feature"}, {"properties": {"name": "Biocel Paskov", "address": "Zahradn\u00ed 762, 73921 Paskov", "url": "http://www.biocel.cz", "sectors": [], "specialization": [null]}, "geometry": {"type": "Point", "coordinates": [18.29463448047438, 49.71795654349154]}, "type": "Feature"}, {"properties": {"name": "Biologicals s.r.o.", "address": "\u0160r\u00e1mkova 315/10, Rado\u0161ovice, 25101 \u0158\u00ed\u010dany", "url": "http://www.biologicals.cz", "sectors": ["BI"], "specialization": [null]}, "geometry": {"type": "Point", "coordinates": [14.668856625781842, 50.000635289529704]}, "type": "Feature"}, {"properties": {"name": "BioVendor Group a.s.", "address": "Evropsk\u00e1 873, 66442 Mod\u0159ice", "url": "http://www.biovendor.com", "sectors": ["BI"], "specialization": [null]}, "geometry": {"type": "Point", "coordinates": [16.604041250118136, 49.112672257743]}, "type": "Feature"}, {"properties": {"name": "Envi-Pur, s.r.o.", "address": "Na Vl\u010dovce 13/4, Dejvice, 16000 Praha 6", "url": "http://www.envi-pur.cz", "sectors": ["CT"], "specialization": [null]}, "geometry": {"type": "Point", "coordinates": [14.382145929928123, 50.10086638029091]}, "type": "Feature"}, {"properties": {"name": "PROTE, spol. s r.o.", "address": "Nad hradn\u00edm potokem 386, Veleslav\u00edn, 16200 Praha 6", "url": "http://www.prote.cz", "sectors": ["BI", "CT"], "specialization": [null]}, "geometry": {"type": "Point", "coordinates": [14.352749306488548, 50.09344083703299]}, "type": "Feature"}, {"properties": {"name": "Enantis, s.r.o.", "address": "Kamenice 771/34, Bohunice, 62500 Brno", "url": "http://www.enantis.com/", "sectors": ["BI", "CT"], "specialization": ["Protein engineering via rational design strategy and directed evolution."]}, "geometry": {"type": "Point", "coordinates": [16.571879884346828, 49.17822082016246]}, "type": "Feature"}, {"properties": {"name": "Laboratory of Technical Electrochemistry, Department of Inorganic Technology, Faculty of Chemical Technology, Institute of Chemical Technology Prague", "address": "Technick\u00e1 1905/5, Dejvice, 16000 Praha 6", "url": "http://www.vscht.cz/kat/index_en.html", "sectors": ["CT"], "specialization": ["PEM type fuel cells \u2013 test stations for testing of fuel cells in the low and mid temperature range; unit for testing of polymer electrolyte conductivity in a broad range of temperatures and degrees of swelling, unit for screening tests of the catalyst activity.", "Water electrolysis \u2013 test rig for the PEM type water electrolysis employing cation selective membrane for elevated temperature and pressure, test rig for water electrolysis employing anion selective polymer electrolyte at the ambient pressure, unit for alkaline polymer electrolyte conductivity determination, unit for catalyst activity determination", "Electrodialysis \u2013 pilot scale electrodialysis unit, mathematical model of the industrial scale electrodialysis unit", "Electrochemical waste water treatment methods: Electrochemical Advanced Oxidation Processes (EAOPs), electrochemical deposition or electroflotation. The know-how in preparation of electrodes based on titanium and knowledge of electrochemical engineering allows to propose and to realize special cell design matching the needs of individual applications. Special attention is paid to the processes using electrochemical treatment in combination with various separation methods like ion exchange, reverse osmosis, membrane dialysis. Developmental workshop and wide spectra of analytical techniques are available."]}, "geometry": {"type": "Point", "coordinates": [14.389954704779425, 50.10344093146608]}, "type": "Feature"}, {"properties": {"name": "Frentech Aerospace s.r.o.", "address": "Jarn\u00ed 977/48, Malom\u011b\u0159ice, 61400 Brno", "url": "http://www.frentech.eu", "sectors": ["AE"], "specialization": ["Assembly of space mechanism in clean room ISO7 /ISO5 and thermal testing", "Machining of precision mechanical parts made of  Aluminium, Titanium and stainless steel", "Assembly in Clean room", "Design", "Technology consulting"]}, "geometry": {"type": "Point", "coordinates": [16.65486888051123, 49.218722609327756]}, "type": "Feature"}, {"properties": {"name": "Imopra s.r.o.", "address": "U Dvora 217, 68751 Nivnice", "url": "http://www.imopra.cz", "sectors": ["AE", "AU", "HT"], "specialization": [null]}, "geometry": {"type": "Point", "coordinates": [17.640160362352706, 48.989858957956784]}, "type": "Feature"}, {"properties": {"name": "JIHLAVAN, a.s.", "address": "Znojemsk\u00e1 826/64, 58601 Jihlava", "url": "http://www.jihlavan.cz", "sectors": ["AE", "EE", "HT"], "specialization": [null]}, "geometry": {"type": "Point", "coordinates": [15.593261895686993, 49.388388278996594]}, "type": "Feature"}, {"properties": {"name": "Jihostroj a.s.", "address": "Bud\u011bjovick\u00e1 148, 38232 Vele\u0161\u00edn", "url": "http://www.jihostroj.cz", "sectors": ["AE", "EE", "HT"], "specialization": [null]}, "geometry": {"type": "Point", "coordinates": [14.461326233678863, 48.83112039460645]}, "type": "Feature"}, {"properties": {"name": "Kovov\u00fdroba Hoffmann s.r.o.", "address": "D\u011bdina 959, 68722 Ostro\u017esk\u00e1 Nov\u00e1 Ves", "url": "http://www.kovovyroba-hoffmann.cz", "sectors": ["AU", "HT", "AE"], "specialization": [null]}, "geometry": {"type": "Point", "coordinates": [17.430045790450954, 49.00407578238575]}, "type": "Feature"}, {"properties": {"name": "L.K. Engineering, s.r.o.", "address": "V\u00edde\u0148sk\u00e1 55/47, \u0160t\u00fd\u0159ice, 63900 Brno", "url": "http://www.lke.cz", "sectors": ["AE", "HT"], "specialization": [null]}, "geometry": {"type": "Point", "coordinates": [16.595176327181957, 49.18084920529547]}, "type": "Feature"}, {"properties": {"name": "Prvn\u00ed brn\u011bnsk\u00e1 stroj\u00edrna Velk\u00e1 B\u00edte\u0161, a.s.", "address": "Vlkovsk\u00e1 279, 59501 Velk\u00e1 B\u00edte\u0161", "url": "http://www.pbsvb.cz", "sectors": ["AE", "HT"], "specialization": [null]}, "geometry": {"type": "Point", "coordinates": [16.21464331645619, 49.300320923438825]}, "type": "Feature"}, {"properties": {"name": "Prague Casting Services a.s.", "address": "Radlick\u00e1 227/107, Radlice, 15800 Praha 5", "url": "http://www.praguecast.cz", "sectors": ["AE", "HT"], "specialization": [null]}, "geometry": {"type": "Point", "coordinates": [14.38226217043575, 50.05631835714258]}, "type": "Feature"}, {"properties": {"name": "RoKo Aero", "address": "Nad Ov\u010d\u00edrnou V 1778/11, 76001 Zl\u00edn", "url": "http://www.rokoaero.com", "sectors": ["AE", "HT"], "specialization": [null]}, "geometry": {"type": "Point", "coordinates": [17.66322612128828, 49.21880760536832]}, "type": "Feature"}, {"properties": {"name": "Bender Robotics s.r.o.", "address": "U vod\u00e1rny 2965/2, Kr\u00e1lovo Pole, 61600 Brno", "url": "http://www.benderrobotics.com", "sectors": ["EE", "HT"], "specialization": [null]}, "geometry": {"type": "Point", "coordinates": [16.574726193169866, 49.224033192597055]}, "type": "Feature"}, {"properties": {"name": "TL elektronic a.s.", "address": "Piletick\u00e1 520, Pouchov, 50341 Hradec Kr\u00e1lov\u00e9", "url": "http://www2.tl-elektronic.cz", "sectors": ["AE"], "specialization": [null]}, "geometry": {"type": "Point", "coordinates": [15.843880021122054, 50.24338187747053]}, "type": "Feature"}, {"properties": {"name": "ZNOJEMSK\u00c9 STROJ\u00cdRNY, s.r.o.", "address": "Tov\u00e1rn\u00ed 883/11, 66902 Znojmo", "url": "http://www.strojirny.cz", "sectors": ["HT", "AE"], "specialization": [null]}, "geometry": {"type": "Point", "coordinates": [16.05494588180927, 48.85226164374142]}, "type": "Feature"}, {"properties": {"name": "ALUCAST, s.r.o.", "address": "\u010d.p. 100, 68707 Tupesy", "url": "http://www.alucast.cz", "sectors": ["HT"], "specialization": ["Production of Al castings \u2013 Investment casting"]}, "geometry": {"type": "Point", "coordinates": [17.378488212451426, 49.092197055910255]}, "type": "Feature"}, {"properties": {"name": "Good Sailors s. r. o.", "address": "Ka\u0161tanov\u00e1 1303/5, D\u011b\u010d\u00edn I-D\u011b\u010d\u00edn, 40502 D\u011b\u010d\u00edn", "url": "http://goodsailors.cz/", "sectors": ["IT"], "specialization": [null]}, "geometry": {"type": "Point", "coordinates": [14.217624093644213, 50.782736316384494]}, "type": "Feature"}, {"properties": {"name": "Cleverbee s.r.o.", "address": "T\u00fcrkova 2318/5a, Chodov, 14900 Praha 4", "url": "http://www.cleverbee.com", "sectors": ["IT"], "specialization": [null]}, "geometry": {"type": "Point", "coordinates": [14.492950533760855, 50.036553504317716]}, "type": "Feature"}, {"properties": {"name": "CN Resources International (CZ) a.s.", "address": "Ve Sme\u010dk\u00e1ch 591/20, Nov\u00e9 M\u011bsto, 11000 Praha 1", "url": "http://www.cngroup.cz", "sectors": ["IT"], "specialization": [null]}, "geometry": {"type": "Point", "coordinates": [14.4271265295967, 50.078817879297944]}, "type": "Feature"}, {"properties": {"name": "COMPELSON Trade s.r.o.", "address": "Na \u017eertv\u00e1ch 2196/34, Libe\u0148, 18000 Praha 8", "url": "http://www.mobiledit.com", "sectors": ["IT"], "specialization": [null]}, "geometry": {"type": "Point", "coordinates": [14.477716253415087, 50.10474180224127]}, "type": "Feature"}, {"properties": {"name": "GIST, s.r.o.", "address": "Collinova 421, V\u011bko\u0161e, 50003 Hradec Kr\u00e1lov\u00e9", "url": "http://www.gist.cz", "sectors": ["IT"], "specialization": [null]}, "geometry": {"type": "Point", "coordinates": [15.831067567885073, 50.21599569265398]}, "type": "Feature"}, {"properties": {"name": "Good Data s.r.o._x000D_\nGood Data s.r.o.", "address": "Lidick\u00e1 965/31, Veve\u0159\u00ed, 60200 Brno", "url": "http://www.gooddata.com", "sectors": ["IT"], "specialization": [null]}, "geometry": {"type": "Point", "coordinates": [16.606561593489065, 49.20264083659927]}, "type": "Feature"}, {"properties": {"name": "KOMIX s.r.o.", "address": "Holubova 2527/1, Sm\u00edchov, 15000 Praha 5", "url": "http://www.komix.cz", "sectors": ["IT"], "specialization": [null]}, "geometry": {"type": "Point", "coordinates": [14.398281476856765, 50.06031703621628]}, "type": "Feature"}, {"properties": {"name": "Kvintech solution, s. r. o.", "address": "Na Folimance 2154/17, Vinohrady, 12000 Praha 2", "url": "http://www.kvintech.cz", "sectors": ["IT"], "specialization": [null]}, "geometry": {"type": "Point", "coordinates": [14.433817216865345, 50.06599562068912]}, "type": "Feature"}, {"properties": {"name": "Northernstar spol. s r.o.", "address": "Tusarova 1281/45, Hole\u0161ovice, 17000 Praha 7", "url": "http://www.northernstar.cz", "sectors": ["IT"], "specialization": [null]}, "geometry": {"type": "Point", "coordinates": [14.452092811457266, 50.10206259423704]}, "type": "Feature"}, {"properties": {"name": "Olympus Czech Group, s.r.o.", "address": "Teli\u010dkova 457/29, P\u0159erov II-P\u0159edmost\u00ed, 75124 P\u0159erov", "url": "http://www.olympus.cz", "sectors": ["IT", "BI", "EE"], "specialization": [null]}, "geometry": {"type": "Point", "coordinates": [17.444118904121595, 49.4661863243679]}, "type": "Feature"}, {"properties": {"name": "PIKE ELECTRONIC spol. s r.o.", "address": "Jeseniova 1196/52, \u017di\u017ekov, 13000 Praha 3", "url": "http://www.pikeelectronic.com", "sectors": ["IT"], "specialization": [null]}, "geometry": {"type": "Point", "coordinates": [14.461382715144222, 50.08693076612972]}, "type": "Feature"}, {"properties": {"name": "Pontech s.r.o. (nyn\u00ed itelligence, a.s., f\u00faze 2015)", "address": "Wenzigova 1861/7, Nov\u00e9 M\u011bsto, 12000 Praha 2", "url": "http://www.pontech.cz", "sectors": ["IT"], "specialization": ["Technical and geographic information systems,  systems integration", "IT infrastructure, CCTV and data safety, Datacenter technologies, Archiving, Backup and Recovery, Disaster recovery, Deduplication, Central videosurveilance solution"]}, "geometry": {"type": "Point", "coordinates": [14.430345094691873, 50.07091072021977]}, "type": "Feature"}, {"properties": {"name": "Provis s.r.o.", "address": "Jir\u00e1skova 1127, 75501 Vset\u00edn", "url": "http://www.provis.cz", "sectors": ["IT"], "specialization": [null]}, "geometry": {"type": "Point", "coordinates": [17.983586168298846, 49.34222456754498]}, "type": "Feature"}, {"properties": {"name": "Extend IT, s.r.o.", "address": "Kroftova 329/1, Sm\u00edchov, 15000 Praha 5", "url": "http://www.extendit.cz", "sectors": ["IT"], "specialization": [null]}, "geometry": {"type": "Point", "coordinates": [14.402985322170865, 50.07722448539438]}, "type": "Feature"}, {"properties": {"name": "Red Hat Czech s.r.o.", "address": "Purky\u0148ova 71/99, Kr\u00e1lovo Pole, 61200 Brno", "url": "http://www.cz.redhat.com", "sectors": ["IT"], "specialization": [null]}, "geometry": {"type": "Point", "coordinates": [16.581282319261035, 49.22611196903924]}, "type": "Feature"}, {"properties": {"name": "itelligence, a.s.", "address": "Hlinky 155/86, Star\u00e9 Brno, 60300 Brno", "url": "http://www.itelligence.cz", "sectors": ["IT"], "specialization": [null]}, "geometry": {"type": "Point", "coordinates": [16.583562467522192, 49.19005768118192]}, "type": "Feature"}, {"properties": {"name": "Software Development Europe, s.r.o.", "address": "Dornych 678/90, Kom\u00e1rov, 61700 Brno", "url": "http://www.sde.cz", "sectors": ["IT"], "specialization": [null]}, "geometry": {"type": "Point", "coordinates": [16.62155492147569, 49.184285986773126]}, "type": "Feature"}, {"properties": {"name": "Sun Microsystems Czech", "address": "V parku 2308/8, Chodov, 14800 Praha 4", "url": "http://ttp:cz.sun.comabout", "sectors": ["IT"], "specialization": [null]}, "geometry": {"type": "Point", "coordinates": [14.493183951894714, 50.028520416688075]}, "type": "Feature"}, {"properties": {"name": "4 M 4, s.r.o.", "address": "Boleslavova 45/9, Nusle, 14000 Praha 4", "url": "http://www.4m4.cz", "sectors": ["IT"], "specialization": [null]}, "geometry": {"type": "Point", "coordinates": [14.438792926162465, 50.06419138142215]}, "type": "Feature"}, {"properties": {"name": "Atotech CZ, a.s.", "address": "Belgick\u00e1 4613/1a, R\u00fdnovice, 46605 Jablonec nad Nisou", "url": "http://www.atotech.com", "sectors": ["EE"], "specialization": [null]}, "geometry": {"type": "Point", "coordinates": [15.15233360214814, 50.73897199095281]}, "type": "Feature"}, {"properties": {"name": "BIOCONT LABORATORY, spol. s r.o.", "address": "\u0160mahova 415/66, Slatina, 62700 Brno", "url": "http://www.biocont.cz", "sectors": ["BI", "CT"], "specialization": [null]}, "geometry": {"type": "Point", "coordinates": [16.687295917556774, 49.17379355379489]}, "type": "Feature"}, {"properties": {"name": "Czech Research Facilities, spol. s r.o.", "address": "\u010d.p. 167, 25070 Panensk\u00e9 B\u0159e\u017eany", "url": "http://www.vuk-kovohute.cz", "sectors": ["HT"], "specialization": [null]}, "geometry": {"type": "Point", "coordinates": [14.441187111064528, 50.21635486138234]}, "type": "Feature"}, {"properties": {"name": "DEZA, a.s.", "address": "Masarykova 753, Kr\u00e1sno nad Be\u010dvou, 75701 Vala\u0161sk\u00e9 Mezi\u0159\u00ed\u010d\u00ed", "url": "http://www.deza.cz", "sectors": ["AU", "CT", "EE"], "specialization": [null]}, "geometry": {"type": "Point", "coordinates": [17.96015115974794, 49.49181536414501]}, "type": "Feature"}, {"properties": {"name": "Fatra a.s.", "address": "t\u0159\u00edda Tom\u00e1\u0161e Bati 1541, 76361 Napajedla", "url": "http://www.fatra.cz", "sectors": ["AU"], "specialization": [null]}, "geometry": {"type": "Point", "coordinates": [17.506314150664398, 49.16990952009514]}, "type": "Feature"}, {"properties": {"name": "FOSFA, a.s.", "address": "Hrani\u010dn\u00ed 268/120, Po\u0161torn\u00e1, 69141 B\u0159eclav", "url": "http://web.fosfa.cz", "sectors": ["CT", "BI"], "specialization": [null]}, "geometry": {"type": "Point", "coordinates": [16.869690217850394, 48.741033177565]}, "type": "Feature"}, {"properties": {"name": "HEXION SPECIALITY CHEMICALS, a.s.", "address": "Tov\u00e1rn\u00ed 2093, 35601 Sokolov", "url": "http://www.hexion.com", "sectors": ["BI"], "specialization": [null]}, "geometry": {"type": "Point", "coordinates": [12.667745230791011, 50.18148387752046]}, "type": "Feature"}, {"properties": {"name": "IMMUNOTECH, a.s.", "address": "Radiov\u00e1 1122/1, Hostiva\u0159, 10200 Praha 10", "url": "http://www.immunotech.cz", "sectors": ["BI"], "specialization": [null]}, "geometry": {"type": "Point", "coordinates": [14.529292785809174, 50.06909466582487]}, "type": "Feature"}, {"properties": {"name": "KR\u00c1LOVOPOLSK\u00c1 a.s.", "address": "K\u0159i\u017e\u00edkova 188/68a, Kr\u00e1lovo Pole, 61200 Brno", "url": "http://www.kralovopolska.cz", "sectors": ["HT"], "specialization": [null]}, "geometry": {"type": "Point", "coordinates": [16.61462976798475, 49.223103919542545]}, "type": "Feature"}, {"properties": {"name": "MikroChem LKT spol. s r.o.", "address": "P\u0159eseka 52, 37901 T\u0159ebo\u0148", "url": "http://www.mikrochem.cz", "sectors": ["CT"], "specialization": [null]}, "geometry": {"type": "Point", "coordinates": [14.727863533187247, 49.04049604233621]}, "type": "Feature"}, {"properties": {"name": "OSRAM Brunt\u00e1l spol. s r. o.", "address": "Zahradn\u00ed 1442/46, 79201 Brunt\u00e1l", "url": "http://www.osram.cz", "sectors": ["EE"], "specialization": [null]}, "geometry": {"type": "Point", "coordinates": [17.468844142185596, 50.00759408646253]}, "type": "Feature"}, {"properties": {"name": "PRECHEZA, a.s.", "address": "n\u00e1b\u0159. Dr. Edvarda Bene\u0161e 1170/24, P\u0159erov I-M\u011bsto, 75002 P\u0159erov", "url": "http://www.precheza.cz", "sectors": ["BI", "CT"], "specialization": ["Titanium dioxide pigment production", "UV absorber", "Development of titanates"]}, "geometry": {"type": "Point", "coordinates": [17.435649975663285, 49.449524784705865]}, "type": "Feature"}, {"properties": {"name": "SAFINA, a.s.", "address": "V\u00edde\u0148sk\u00e1 104, 25250 Vestec", "url": "http://www.safina.cz", "sectors": ["CT", "NN"], "specialization": [null]}, "geometry": {"type": "Point", "coordinates": [14.493763367381316, 49.98538040678471]}, "type": "Feature"}, {"properties": {"name": "LIMTEK, spol. s.r.o.", "address": "\u010capkova 1941/22, 67801 Blansko", "url": "http://www.limteklaser.com", "sectors": ["EE"], "specialization": [null]}, "geometry": {"type": "Point", "coordinates": [16.65293681061408, 49.35521803821755]}, "type": "Feature"}, {"properties": {"name": "International Clinical Research Center of St. Anne\u00b4s University Hospital in Brno", "address": "Peka\u0159sk\u00e1 664/53, Star\u00e9 Brno, 60200 Brno", "url": "http://www.fnusa-icrc.org", "sectors": ["BI"], "specialization": ["Development of novel strategies for early detection and advanced treatment of neurological diseases", "Development of novel strategies for early detection and advanced treatment of cardiovascular diseases.", "Integrated multidisciplinary platform for experimental medicine and biotechnology"]}, "geometry": {"type": "Point", "coordinates": [16.598792065971747, 49.19135295875579]}, "type": "Feature"}, {"properties": {"name": "ZKL a.s.", "address": "Jedovnick\u00e1 2346/8, L\u00ed\u0161e\u0148, 62800 Brno", "url": "http://www.zkl.cz", "sectors": ["AU"], "specialization": [null]}, "geometry": {"type": "Point", "coordinates": [16.66710884544687, 49.199157131171994]}, "type": "Feature"}, {"properties": {"name": "V\u00fdzkumn\u00fd \u00fastav rostlinn\u00e9 v\u00fdroby", "address": "Drnovsk\u00e1 507/73, Ruzyn\u011b, 16100 Praha 6", "url": "http://www.vurv.cz", "sectors": ["CT"], "specialization": [null]}, "geometry": {"type": "Point", "coordinates": [14.302160841882445, 50.086558664966475]}, "type": "Feature"}, {"properties": {"name": "Delong Instruments a.s.", "address": "Palack\u00e9ho t\u0159\u00edda 3019/153b, Kr\u00e1lovo Pole, 61200 Brno", "url": "http://www.dicomps.com", "sectors": ["EE", "BI", "AE", "IT"], "specialization": [null]}, "geometry": {"type": "Point", "coordinates": [16.587792791631514, 49.23323635264352]}, "type": "Feature"}, {"properties": {"name": "\u010cVUT, fakulta elektrotechnick\u00e1", "address": "Technick\u00e1 1902/2, Dejvice, 16000 Praha 6", "url": "http://www.rdc.cz", "sectors": ["EE", "NN", "IT", "HT"], "specialization": [null, null, null, null, null]}, "geometry": {"type": "Point", "coordinates": [14.392381194965946, 50.102638283784444]}, "type": "Feature"}, {"properties": {"name": "ON Semiconductor Czech Republic, s.r.o.", "address": "1. m\u00e1je 2230, 75661 Ro\u017enov pod Radho\u0161t\u011bm", "url": "http://www.onsemi.com", "sectors": ["EE"], "specialization": [null]}, "geometry": {"type": "Point", "coordinates": [18.129561152307307, 49.46114506593739]}, "type": "Feature"}, {"properties": {"name": "Polovodi\u010de a.s.", "address": "Ovocn\u00fd trh 572/11, Star\u00e9 M\u011bsto, 11000 Praha 1", "url": "http://www.ckdpoel.cz", "sectors": ["EE"], "specialization": [null]}, "geometry": {"type": "Point", "coordinates": [14.424902061381601, 50.08680219569229]}, "type": "Feature"}, {"properties": {"name": "RFspin s.r.o.", "address": "Na Ber\u00e1nce 57/2, Dejvice, 16000 Praha 6", "url": "http://www.rfspin.cz", "sectors": ["EE"], "specialization": ["Design and manufacturing of customized antennas", "Design and manufacturing of RF measurement devices"]}, "geometry": {"type": "Point", "coordinates": [14.364718373864344, 50.10080485048547]}, "type": "Feature"}, {"properties": {"name": "SVCS s.r.o.", "address": "Opt\u00e1tova 708/37, Jundrov, 63700 Brno", "url": "http://www.svcs.cz", "sectors": ["EE", "CT", "NN"], "specialization": [null]}, "geometry": {"type": "Point", "coordinates": [16.552609916406002, 49.21174669914003]}, "type": "Feature"}, {"properties": {"name": "SpeechLab, Institute of Information Technology and Electronics, Technical University of Liberec (TUL)", "address": "Studentsk\u00e1 1402/2, Liberec I-Star\u00e9 M\u011bsto, 46001 Liberec", "url": "https://www.ite.tul.cz/speechlabe/", "sectors": ["IT"], "specialization": ["Speech recognition platform for highly inflected languages. It is based on our own, very fast speech decoder that can operate with very large vocabularies (with 500.000 words and more) in real time. It has been used in the development of the first commercial dictation programs for Czech and Slovak, and in the first broadcast news transcription and sub-titling platforms for the same two languages. Recently, some of the tools have been ported also into smart mobile devices.", "Voice controlled tools for people with disabilities", "Speaker recognition and verification, key-word spotting"]}, "geometry": {"type": "Point", "coordinates": [15.074816941399662, 50.77314562076441]}, "type": "Feature"}, {"properties": {"name": "SPOLANA, a.s.", "address": "Pr\u00e1ce 657, 27711 Neratovice", "url": "http://www.spolana.cz", "sectors": ["CT"], "specialization": [null]}, "geometry": {"type": "Point", "coordinates": [14.524478795912007, 50.26705928373213]}, "type": "Feature"}, {"properties": {"name": "SYNTHOS Kralupy a.s.", "address": "O. Wichterleho 810, Lobe\u010dek, 27801 Kralupy nad Vltavou", "url": "http://synthosgroup.com/", "sectors": ["CT"], "specialization": [null]}, "geometry": {"type": "Point", "coordinates": [14.32193222848988, 50.255872297905384]}, "type": "Feature"}, {"properties": {"name": "VUCHZ, a.s.", "address": "K\u0159i\u017e\u00edkova 2697/70, Kr\u00e1lovo Pole, 61200 Brno", "url": "http://www.vuchz.cz", "sectors": ["BI", "CT"], "specialization": [null]}, "geometry": {"type": "Point", "coordinates": [16.61858926089532, 49.22238547191215]}, "type": "Feature"}, {"properties": {"name": "Nanopharma, a.s.", "address": "Nov\u00e1 306, Polabiny, 53009 Pardubice", "url": "http://www.nanopharma.cz", "sectors": ["BI", "NN"], "specialization": ["Knowledge transfer for production of nanofibers (electrospinning device design, employee training).", "Development of custom-designed  nanofibrous structures."]}, "geometry": {"type": "Point", "coordinates": [15.759179318223529, 50.051169870465976]}, "type": "Feature"}, {"properties": {"name": "DYNTEC spol. s r.o._x000D_\nDYNTEC spol. s r.o.   _x000D_\nDYNTEC spol. s r.o.  _x000D_\nDYNTEC spol. s r.o.", "address": "Pra\u017esk\u00e1 328, 41155 Terez\u00edn", "url": "http://www.dyntec.cz", "sectors": ["BI"], "specialization": [null]}, "geometry": {"type": "Point", "coordinates": [14.155050442951293, 50.51415989923903]}, "type": "Feature"}, {"properties": {"name": "Genomac International, s.r.o.", "address": "Ho\u0161\u0165\u00e1lkova 661/42, B\u0159evnov, 16900 Praha 6", "url": "http://www.genomac.cz", "sectors": ["BI"], "specialization": [null]}, "geometry": {"type": "Point", "coordinates": [14.36565077551423, 50.08195565054938]}, "type": "Feature"}, {"properties": {"name": "GEN-TREND s.r.o.", "address": "Doln\u00ed 2102/2, \u010cesk\u00e9 Bud\u011bjovice 3, 37004 \u010cesk\u00e9 Bud\u011bjovice", "url": "http://www.gentrend.cz", "sectors": ["BI"], "specialization": [null]}, "geometry": {"type": "Point", "coordinates": [14.481409208382104, 48.99507851882683]}, "type": "Feature"}, {"properties": {"name": "IntellMed, s.r.o.", "address": "V\u00e1clavsk\u00e9 n\u00e1m\u011bst\u00ed 820/41, Nov\u00e9 M\u011bsto, 11000 Praha 1", "url": "http://www.intellmed.eu", "sectors": ["BI"], "specialization": [null]}, "geometry": {"type": "Point", "coordinates": [14.428108994355556, 50.08149927484729]}, "type": "Feature"}, {"properties": {"name": "INVENTIA s.r.o.", "address": "Na b\u011blidle 64/3, Sm\u00edchov, 15000 Praha 5", "url": "http://www.inventia.cz", "sectors": ["BI"], "specialization": [null]}, "geometry": {"type": "Point", "coordinates": [14.40970291893947, 50.072037847482086]}, "type": "Feature"}, {"properties": {"name": "Top-Bio, s.r.o.", "address": "Jordana Jovkova 3262/23, Mod\u0159any, 14300 Praha 4", "url": "http://www.top-bio.cz", "sectors": ["BI"], "specialization": [null]}, "geometry": {"type": "Point", "coordinates": [14.420576248159891, 50.00645896980378]}, "type": "Feature"}, {"properties": {"name": "JERID, spol. s r.o.", "address": "H\u00e1lkova 171/2, Hodolany, 77900 Olomouc", "url": "http://www.jerid.eu", "sectors": ["IT"], "specialization": ["Aiding Tools for Organising Railway Transports - Multilingual and modular software applications and tools designed to facilitate railway transports planning built on continuous processing of relevant data.", "Railway Network Maps - Fully digital railway network maps with updated information; track & tracing in railway transport on Euro-Asian scale.", "Complex Support for Forwarders and Transporters - Robust and universal software solution adaptable to support all technological processes of a forwarding agent or a transport company."]}, "geometry": {"type": "Point", "coordinates": [17.27354655358872, 49.59098076689353]}, "type": "Feature"}, {"properties": {"name": "V\u00ddZKUMN\u00dd \u00daSTAV ORGANICK\u00ddCH SYNT\u00c9Z, a.s.", "address": "\u010d.p. 296, 53354 Rybitv\u00ed", "url": "http://www.vuosas.cz", "sectors": ["BI"], "specialization": [null]}, "geometry": {"type": "Point", "coordinates": [15.711040092400935, 50.05895822940576]}, "type": "Feature"}, {"properties": {"name": "V\u00ddZKUMN\u00dd \u00daSTAV POTRAVIN\u00c1\u0158SK\u00dd PRAHA, v.v.i.", "address": "Radiov\u00e1 1285/7, Hostiva\u0159, 10200 Praha 10", "url": "http://www.vupp.cz", "sectors": ["BI"], "specialization": [null]}, "geometry": {"type": "Point", "coordinates": [14.533642311888693, 50.07006414913183]}, "type": "Feature"}, {"properties": {"name": "CARBORUNDUM ELECTRITE, a.s. (Tyrolit CEE k. s.)", "address": "Tov\u00e1rn\u00ed 210, Ben\u00e1tky nad Jizerou I, 29471 Ben\u00e1tky nad Jizerou", "url": "http://www.carborundum.cz", "sectors": ["EE"], "specialization": [null]}, "geometry": {"type": "Point", "coordinates": [14.82964367070758, 50.29091009708032]}, "type": "Feature"}, {"properties": {"name": "\u010cZ a.s.", "address": "Slune\u010dn\u00ed n\u00e1m\u011bst\u00ed 2540/5, Stod\u016flky, 15800 Praha 5", "url": "http://www.czas.cz", "sectors": ["AU"], "specialization": [null]}, "geometry": {"type": "Point", "coordinates": [14.341902169216686, 50.050528982329546]}, "type": "Feature"}, {"properties": {"name": "ELEKTRO\u010cAS s.r.o.", "address": "Pod\u011bbradsk\u00e1 633/22, Vyso\u010dany, 19000 Praha 9", "url": "http://www.elektrocas.cz", "sectors": ["EE"], "specialization": [null]}, "geometry": {"type": "Point", "coordinates": [14.507703492504387, 50.101951678310506]}, "type": "Feature"}, {"properties": {"name": "Institute of Microelectronic Applications Ltd.", "address": "Na Valentince 1003/1, Sm\u00edchov, 15000 Praha 5", "url": "http://www.ima.cz", "sectors": ["EE", "IT"], "specialization": ["Identification systems  - Access + attendance control", "Telematic application center", "Chip cards applications center"]}, "geometry": {"type": "Point", "coordinates": [14.410475773495268, 50.067520602978966]}, "type": "Feature"}, {"properties": {"name": "ELITEX MACHINERY, s.r.o.", "address": "N\u00e1dra\u017en\u00ed 104, 34506 Kdyn\u011b", "url": "http://www.elitex-kdyne.cz", "sectors": ["AU", "HT"], "specialization": [null]}, "geometry": {"type": "Point", "coordinates": [13.035027173984803, 49.387783200462636]}, "type": "Feature"}, {"properties": {"name": "ETA a.s.", "address": "Poli\u010dsk\u00e1 444, 53901 Hlinsko", "url": "http://eta.cz", "sectors": ["EE"], "specialization": [null]}, "geometry": {"type": "Point", "coordinates": [15.92001397529163, 49.76688435265099]}, "type": "Feature"}, {"properties": {"name": "ASSA ABLOY Czech & Slovakia s. r. o.(d\u0159\u00edve FAB s.r.o.)", "address": "Dolnom\u011bcholupsk\u00e1 1418/12, Hostiva\u0159, 10200 Praha 10", "url": "http://www.fab.cz", "sectors": ["AU", "EE"], "specialization": [null]}, "geometry": {"type": "Point", "coordinates": [14.548523961801394, 50.05666045105048]}, "type": "Feature"}, {"properties": {"name": "KOH-I-NOOR HARDTMUTH, a.s", "address": "F. A. Gerstnera 21/3, \u010cesk\u00e9 Bud\u011bjovice 7, 37001 \u010cesk\u00e9 Bud\u011bjovice", "url": "http://www.koh-i-noor.cz", "sectors": [], "specialization": [null]}, "geometry": {"type": "Point", "coordinates": [14.472244548962504, 48.96914029916396]}, "type": "Feature"}, {"properties": {"name": "KOVOSVIT MAS, a.s.", "address": "n\u00e1m\u011bst\u00ed Tom\u00e1\u0161e Bati 419, 39102 Sezimovo \u00dast\u00ed", "url": "http://www.kovosvit.cz", "sectors": ["AE", "AU", "CT", "HT"], "specialization": [null]}, "geometry": {"type": "Point", "coordinates": [14.697965589115054, 49.37597333019832]}, "type": "Feature"}, {"properties": {"name": "Leteck\u00e9 p\u0159\u00edstroje Praha, s.r.o.", "address": "Pod H\u00e1jkem 406/1a, Libe\u0148, 18000 Praha 8", "url": "http://www.lp-praha.cz", "sectors": ["AE", "AU", "EE", "HT"], "specialization": [null]}, "geometry": {"type": "Point", "coordinates": [14.478419529805347, 50.10572005436659]}, "type": "Feature"}, {"properties": {"name": "PSI (PHOTON SYSTEMS INSTRUMENTS) spol. s r.o.", "address": "Kol\u00e1\u010dkova 1057/39, \u0158e\u010dkovice, 62100 Brno", "url": "http://www.psi.cz", "sectors": ["EE", "BI", "CT"], "specialization": ["Production of Pocket-sized instruments used in plant biology research", "Production of FluorCams used in plant biology research", "Production of Photobioreactors", "Production of growth chambers and incubated shakers", "PlantScreenTM Phenotyping Systems"]}, "geometry": {"type": "Point", "coordinates": [16.577727893027287, 49.24408320116236]}, "type": "Feature"}, {"properties": {"name": "Sellier & Bellot, stroje s.r.o", "address": "Lidick\u00e1 667, 25801 Vla\u0161im", "url": "http://sellier-bellot.czpacking", "sectors": ["HT"], "specialization": [null]}, "geometry": {"type": "Point", "coordinates": [14.910473091896101, 49.695183406687306]}, "type": "Feature"}, {"properties": {"name": "SFINX, a.s.", "address": "U Smaltovny 115/2, \u010cesk\u00e9 Bud\u011bjovice 4, 37001 \u010cesk\u00e9 Bud\u011bjovice", "url": "http://www.sfinx.cz", "sectors": [], "specialization": [null]}, "geometry": {"type": "Point", "coordinates": [14.488222199827213, 48.979895974027535]}, "type": "Feature"}, {"properties": {"name": "\u0160MERAL Brno a.s.", "address": "K\u0159enov\u00e1 261/65c, Trnit\u00e1, 60200 Brno", "url": "http://www.smeral.cz", "sectors": ["AU", "AE", "HT"], "specialization": [null]}, "geometry": {"type": "Point", "coordinates": [16.624679352763625, 49.19244112893293]}, "type": "Feature"}, {"properties": {"name": "TOS KU\u0158IM - OS, a.s.", "address": "\u0160tef\u00e1nikova 110/41, Ponava, 60200 Brno", "url": "http://www.tos-kurim.cz", "sectors": ["HT"], "specialization": [null]}, "geometry": {"type": "Point", "coordinates": [16.601652749611702, 49.2118746328961]}, "type": "Feature"}, {"properties": {"name": "ZV - N\u00e1stroje s.r.o.", "address": "Jasenice 2094, 75501 Vset\u00edn", "url": "http://www.zv-nastroje.cz", "sectors": ["HT"], "specialization": ["Simple, complex and transfer stamping tools for sheet metal processing", "Tools for bulk metal forming", "Limit gauges (roller, stirrup, cone thread), operational gauges, etc.", "Fixtures (various types)", "CNC-Jig grinding, thread grinding, Production of general machinery components and assemblies"]}, "geometry": {"type": "Point", "coordinates": [18.048494825170106, 49.3496631116324]}, "type": "Feature"}, {"properties": {"name": "EXBIO Praha, a.s.", "address": "Nad Safinou II 341, 25250 Vestec", "url": "http://www.exbio.cz", "sectors": ["BI"], "specialization": ["Multicolor Clinical Flow Cytometry Reagents"]}, "geometry": {"type": "Point", "coordinates": [14.490260208976169, 49.98222251112548]}, "type": "Feature"}, {"properties": {"name": "Bioveta, a. s.", "address": "Komensk\u00e9ho 212/12, 68323 Ivanovice na Han\u00e9", "url": "http://www.bioveta.cz", "sectors": ["BI"], "specialization": ["Development of biological products", "Development of pharmaceutical products", "Food supplements", "Breeding and sale of laboratory animals", "Testing according to methodologies by OECD (project REACH)"]}, "geometry": {"type": "Point", "coordinates": [17.096330382665887, 49.30590226517974]}, "type": "Feature"}, {"properties": {"name": "Apronex s.r.o.", "address": "Nad Safinou II 365, 25250 Vestec", "url": "http://www.apronex.cz", "sectors": ["BI"], "specialization": ["Apoptosis detection", "Cytokine production", "Molecular cloning services and protein expression"]}, "geometry": {"type": "Point", "coordinates": [14.491123164960737, 49.98343352882113]}, "type": "Feature"}, {"properties": {"name": "ERA a.s.", "address": "Pr\u016fmyslov\u00e1 387, Pardubi\u010dky, 53003 Pardubice", "url": "http://www.era.aero", "sectors": ["EE"], "specialization": ["Vehicle tracking unit SQUID (Squitter Beacon \u2013 ADS-B)", "PCL (MSPSR passive) and MSPSR active", "MSS - Multi-Sensor Surveillance System - (multilateration civil solutions - for airport surface and wide area)", "Parallel Runway Monitoring", "Passive ESM Tracker VERA-NG \u2013 multilateration for military solutions"]}, "geometry": {"type": "Point", "coordinates": [15.808036401954103, 50.02029767644725]}, "type": "Feature"}, {"properties": {"name": "OKsystem s.r.o.", "address": "Na Pankr\u00e1ci 1690/125, Nusle, 14000 Praha 4", "url": "http://www.oksystem.cz", "sectors": ["IT"], "specialization": ["Smart card middleware for chip based electronic ID documents based on emerging international standards. Design and implementation of complex security protocols based on latest cryptography building blocks for integration of smart chip and mobile devices technology with server and user applications._x000D_\nResearch and implementation of new user authentication systems with limited information leak of personal data during the use of ICT systems."]}, "geometry": {"type": "Point", "coordinates": [14.439380903693813, 50.05254460042344]}, "type": "Feature"}, {"properties": {"name": "Contipro a.s.", "address": "\u010d.p. 401, 56102 Doln\u00ed Dobrou\u010d", "url": "http://www.contipro.com", "sectors": ["BI", "NN"], "specialization": ["Active cosmetic and pharmaceutical ingredients", "Veterinary products", "4SPIN nanotechnology devices and nanomaterials", "Wound healing", "Hyaluronan forms for tissue engineering and regenerative medicine"]}, "geometry": {"type": "Point", "coordinates": [16.475513163755238, 50.00842119621989]}, "type": "Feature"}, {"properties": {"name": "V\u00fdzkumn\u00fd a zku\u0161ebn\u00ed \u00fastav Plze\u0148 s.r.o.", "address": "Tylova 1581/46, Ji\u017en\u00ed P\u0159edm\u011bst\u00ed, 30100 Plze\u0148", "url": "http://www.vzuplzen.cz", "sectors": ["EE", "AU", "CT", "AE", "HT"], "specialization": ["Noise and vibration measurement, balancing of rotating machines", "Strength and fatigue life investigation of structures, real service loading measurements and simulations.", "Thermal sprayed coatings", "Material Testing and Service Life Assessment", "Applied Mechanics"]}, "geometry": {"type": "Point", "coordinates": [13.365089318366415, 49.74522176175876]}, "type": "Feature"}, {"properties": {"name": "Institute of Aerospace Engineering, Faculty of Mechanical Engineering, Brno University of Technology", "address": "Technick\u00e1 2896/2, Kr\u00e1lovo Pole, 61600 Brno", "url": "http://lu.fme.vutbr.cz", "sectors": ["AE"], "specialization": ["Safety and Reliability", "Aircraft Design", "Aerodynamics", "Strength of aircraft structures", "Composite technologies"]}, "geometry": {"type": "Point", "coordinates": [16.57702490628767, 49.22440813580766]}, "type": "Feature"}, {"properties": {"name": "Synthon", "address": "Brn\u011bnsk\u00e1 597/32, 67801 Blansko", "url": "http://www.synthon.com", "sectors": ["BI"], "specialization": [null]}, "geometry": {"type": "Point", "coordinates": [16.640456654624096, 49.35416956717885]}, "type": "Feature"}, {"properties": {"name": "BVT Technologies, a.s.", "address": "\u010d.p. 206, 59253 Str\u00e1\u017eek", "url": "http://www.bvt.cz", "sectors": ["BI"], "specialization": ["Electrochemical sensors and biosensors \u2013 design and production", "Amperometry and cyclic voltammetry measurement"]}, "geometry": {"type": "Point", "coordinates": [16.19241151697389, 49.439859409756174]}, "type": "Feature"}, {"properties": {"name": "Institute of Complex Systems, Faculty of Fishery and Protection of Waters, University of South Bohemia", "address": "\u010d.p. 136, 37333 Nov\u00e9 Hrady", "url": "http://www.frov.jcu.cz", "sectors": ["BI"], "specialization": ["Experimental data and metadata management", "Water quality monitoring system based on the crayfish as bio-indicator", "Fish behaviour monitoring", "Specialized microscopes development and microscopy image processing", "Bio-compatibility test"]}, "geometry": {"type": "Point", "coordinates": [14.782403983489665, 48.791019887389474]}, "type": "Feature"}, {"properties": {"name": "T \u2013 SOFT a.s.", "address": "Novodvorsk\u00e1 1010/14, Lhotka, 14200 Praha 4", "url": "http://www.t-soft.eu/", "sectors": ["IT"], "specialization": ["SW Development and HW Delivery", "Corporate Data Security", "Crisis management", "Research section"]}, "geometry": {"type": "Point", "coordinates": [14.45034847414867, 50.017304717335485]}, "type": "Feature"}, {"properties": {"name": "FOTON s.r.o.", "address": "T\u011b\u0161\u00ednsk\u00e1 1361, 50901 Nov\u00e1 Paka", "url": "http://www.fotons.cz", "sectors": ["EE"], "specialization": [null]}, "geometry": {"type": "Point", "coordinates": [15.506643883004802, 50.49698108958809]}, "type": "Feature"}, {"properties": {"name": "Meopta - optika, a.s.", "address": "Kabel\u00edkova 2682/1, P\u0159erov I-M\u011bsto, 75002 P\u0159erov", "url": "http://www.meopta.com", "sectors": ["EE", "HT"], "specialization": [null]}, "geometry": {"type": "Point", "coordinates": [17.47298694655644, 49.453861978922525]}, "type": "Feature"}, {"properties": {"name": "Rigaku Innovative Technologies Europe s.r.o.", "address": "Novodvorsk\u00e1 994/138, Bran\u00edk, 14200 Praha 4", "url": "http://www.rigaku.com", "sectors": ["EE"], "specialization": [null]}, "geometry": {"type": "Point", "coordinates": [14.430801602897137, 50.02764830042293]}, "type": "Feature"}, {"properties": {"name": "VAKUUM PRAHA, spol. s r. o.", "address": "V Hole\u0161ovi\u010dk\u00e1ch 747/2, Libe\u0148, 18000 Praha 8", "url": "http://www.vakuum.cz", "sectors": ["EE"], "specialization": [null]}, "geometry": {"type": "Point", "coordinates": [14.44891295080073, 50.11533118077791]}, "type": "Feature"}, {"properties": {"name": "NEOVISION s.r.o.", "address": "Barrandova 409/1a, Mod\u0159any, 14300 Praha 4", "url": "http://www.neovision.cz", "sectors": ["EE", "IT"], "specialization": [null]}, "geometry": {"type": "Point", "coordinates": [14.402789480569375, 50.015129742951046]}, "type": "Feature"}, {"properties": {"name": "Equica, a.s.", "address": "Rube\u0161ka 215/1, Vyso\u010dany, 19000 Praha 9", "url": "http://www.equica.cz", "sectors": ["IT"], "specialization": ["Project Management", "Design of process framework in organizations", "ICT consulting"]}, "geometry": {"type": "Point", "coordinates": [14.495478292905222, 50.11150448291308]}, "type": "Feature"}, {"properties": {"name": "TESCAN, a.s.", "address": "Libu\u0161ina t\u0159\u00edda 863/21, Kohoutovice, 62300 Brno", "url": "http://www.tescan.com", "sectors": ["EE", "NN"], "specialization": ["Applied research in the field of charged particle optics and design of electron optical devices"]}, "geometry": {"type": "Point", "coordinates": [16.53236358388748, 49.18937885218238]}, "type": "Feature"}, {"properties": {"name": "NanoTrade, s.r.o.", "address": "Mozartova 178/12, Nov\u00e1 Ulice, 77900 Olomouc", "url": "http://www.nanotrade.cz, www.nanosilver.eu", "sectors": ["NN"], "specialization": ["NanoTrade offers the technology and process Know-How in the projects oriented to the Surface", "Antibacterial applications with nano Ag", "Emission Reduction and improvement of the economy burning.", "Cosmetics development (B2B)"]}, "geometry": {"type": "Point", "coordinates": [17.23852019166587, 49.5941674706055]}, "type": "Feature"}, {"properties": {"name": "LentiKat\u00b4s a.s.", "address": "Evropsk\u00e1 846/176a, Vokovice, 16000 Praha 6", "url": "http://www.lentikats.eu", "sectors": ["BI"], "specialization": ["Development of robust whole-cell biocatalysts for fine-chemical manufacture using biotransformation.", "Development of solutions for efficient removal of nitrogen pollution from municipal and industrial wastewaters (nitrification, denitrification, nitritation, deammonification).", "Lentikats Biocatalyst with immobilized enzymes for the production of specialty chemicals", "Lentikats Biocatalyst for removal of organic pollution (BOD) and selective biodegradations", "Production of biofuels from various substrates using immobilised yeast, enzymes or bacteria"]}, "geometry": {"type": "Point", "coordinates": [14.340187489869315, 50.09545435874457]}, "type": "Feature"}, {"properties": {"name": "V\u0160B-Technical University of Ostrava, Faculty of Metallurgy and Materials Engineering, Regional materials science and technology centre", "address": "17. listopadu 2172/15, Poruba, 70800 Ostrava", "url": "http://www.rmtvc.cz", "sectors": ["NN", "HT"], "specialization": ["Department of powder technologies", "Department of forming processes", "Department of evaluation of materials properties", "Department of experimental verification of technologies and applications", "Department of preparation of materials"]}, "geometry": {"type": "Point", "coordinates": [18.16364727598132, 49.83367336301537]}, "type": "Feature"}, {"properties": {"name": "CleverMaps, s.r.o.", "address": "V\u00edde\u0148sk\u00e1 101/119, Doln\u00ed Her\u0161pice, 61900 Brno", "url": "http://www.clevermaps.cz", "sectors": ["IT"], "specialization": ["CleverRoads", "CleverFarm", "CleverAnalytics \u2013 a division that became independent during 2015 and a new, daughter company CLEVERANALYTICS Ltd. was formed.", "CleverAssets"]}, "geometry": {"type": "Point", "coordinates": [16.604595557842515, 49.15172583963148]}, "type": "Feature"}, {"properties": {"name": "Farmet a. s.", "address": "Ji\u0159inkov\u00e1 276, Mal\u00e1 Skalice, 55203 \u010cesk\u00e1 Skalice", "url": "http://www.farmet.cz", "sectors": ["CT", "HT"], "specialization": ["Technologies for oil seeds and vegetable oil processing, feed extrusion technologies", "Development, production and sale of agricultural machines, especially those designed for soil treatment and sowing"]}, "geometry": {"type": "Point", "coordinates": [16.034766930746073, 50.394530860594365]}, "type": "Feature"}, {"properties": {"name": "ORLI\u010cAN s.r.o.", "address": "Lond\u00fdnsk\u00e1 376/57, Vinohrady, 12000 Praha 2", "url": "http://www.orlican.org/", "sectors": ["AE"], "specialization": [null]}, "geometry": {"type": "Point", "coordinates": [14.433503170904249, 50.0749177817132]}, "type": "Feature"}, {"properties": {"name": "Promens a.s.", "address": "Cecilka 38, P\u0159\u00edluky, 76001 Zl\u00edn", "url": "http://www.zlin.promens.com/", "sectors": ["HT"], "specialization": [null]}, "geometry": {"type": "Point", "coordinates": [17.718333382882918, 49.22387281403902]}, "type": "Feature"}, {"properties": {"name": "ENBRA, a. s.", "address": "Dur\u010f\u00e1kova 1786/5, \u010cern\u00e1 Pole, 61300 Brno", "url": "http://www.enbra.cz/", "sectors": ["CT"], "specialization": [null]}, "geometry": {"type": "Point", "coordinates": [16.61863180247633, 49.20357413249596]}, "type": "Feature"}, {"properties": {"name": "LIKO-S, a.s.", "address": "U Splavu 1419, 68401 Slavkov u Brna", "url": "http://www.liko-s.cz/", "sectors": ["CT", "HT"], "specialization": [null]}, "geometry": {"type": "Point", "coordinates": [16.867807874941775, 49.144348905028636]}, "type": "Feature"}, {"properties": {"name": "AdvaMat s.r.o.", "address": "Jugosl\u00e1vsk\u00fdch partyz\u00e1n\u016f 1580/3, Dejvice, 16000 Praha 6", "url": "http://www.advamat.cz/", "sectors": ["NN"], "specialization": [null]}, "geometry": {"type": "Point", "coordinates": [14.394670093946417, 50.104046152699915]}, "type": "Feature"}, {"properties": {"name": "Cryptelo s.r.o.", "address": "Pod H\u00e1jkem 406/1a, Libe\u0148, 18000 Praha 8", "url": "https://www.cryptelo.com/cs/", "sectors": ["IT"], "specialization": [null]}, "geometry": {"type": "Point", "coordinates": [14.478419529805347, 50.10572005436659]}, "type": "Feature"}, {"properties": {"name": "TESTIMA, spol. s r.o.", "address": "K\u0159ovinovo n\u00e1m\u011bst\u00ed 8/10, Horn\u00ed Po\u010dernice, 19300 Praha 9", "url": "http://www.testima.eu/", "sectors": ["CT"], "specialization": [null]}, "geometry": {"type": "Point", "coordinates": [14.628395909905393, 50.11596016367994]}, "type": "Feature"}, {"properties": {"name": "C.I.C. Jan H\u0159ebec s.r.o.", "address": "Na Zlat\u00e9 stezce 1075, 26301 Dob\u0159\u00ed\u0161", "url": "http://www.cic.cz/", "sectors": ["EE", "CT"], "specialization": [null]}, "geometry": {"type": "Point", "coordinates": [14.18187297020834, 49.79226354752932]}, "type": "Feature"}, {"properties": {"name": "GAUSS Algorithmic, s.r.o.", "address": "Slov\u00e1kova 279/11, Veve\u0159\u00ed, 60200 Brno", "url": "http://www.gaussalgo.cz", "sectors": ["IT"], "specialization": ["Big Data processing and analysis, machine learning and predictive analytics", "Artificial intelligence for Cyber Security and data loss prevention", "Behavioral customers profiling (omnichannel)", "Image recognition and anomaly detection"]}, "geometry": {"type": "Point", "coordinates": [16.602559951945913, 49.20083531562287]}, "type": "Feature"}, {"properties": {"name": "HAM-FINAL, s.r.o.", "address": "Vl\u00e1rsk\u00e1 953/22, Slatina, 62700 Brno", "url": "http://www.ham-final.cz/", "sectors": ["HT"], "specialization": [null]}, "geometry": {"type": "Point", "coordinates": [16.673015882772845, 49.18101608838542]}, "type": "Feature"}, {"properties": {"name": "Merica s.r.o.", "address": "U L\u00e1dek 353/37, Stra\u0161\u00edn, 25101 \u0158\u00ed\u010dany", "url": "http://merica.cz/", "sectors": ["IT"], "specialization": [null]}, "geometry": {"type": "Point", "coordinates": [14.69501577740798, 50.00203493756659]}, "type": "Feature"}, {"properties": {"name": "TNS Servis, s.r.o.", "address": "K Teplin\u00e1m 619, 76315 Slu\u0161ovice", "url": "http://www.tnsservis.cz", "sectors": ["EE", "AU", "HT"], "specialization": ["Contract manufacturing \u2013 LED lighting", "Contract manufacturing - Automotive", "Automation and robotics", "Outsourcing", "Machining"]}, "geometry": {"type": "Point", "coordinates": [17.79761491079679, 49.24447698388267]}, "type": "Feature"}, {"properties": {"name": "Automotive Lighting s.r.o.", "address": "P\u00e1vov 113, 58601 Jihlava", "url": "http://www.al-lighting.cz", "sectors": ["AU"], "specialization": ["FULL LED Modules - development & production of LED modules based on LED and Laser LED sources.", "HEADLAMPS \u2013 development & production with innovative lighting technology based on Halogen, Xenon and FULL LED or LASER LED light sources."]}, "geometry": {"type": "Point", "coordinates": [15.613095306165398, 49.442719372442156]}, "type": "Feature"}, {"properties": {"name": "Workswell s.r.o.", "address": "Libock\u00e1 653/51b, Liboc, 16100 Praha 6", "url": "http://www.workswell.cz", "sectors": ["IT"], "specialization": ["Machine vision systems", "Non-contact temperature measurement"]}, "geometry": {"type": "Point", "coordinates": [14.327434765012857, 50.08829402969349]}, "type": "Feature"}, {"properties": {"name": "Nuvia a.s. (p\u016fv. ENVINET a.s.)", "address": "Mod\u0159\u00ednov\u00e1 1094, Nov\u00e9 Dvory, 67401 T\u0159eb\u00ed\u010d", "url": "http://www.envinet.cz", "sectors": ["EE", "HT"], "specialization": ["Radiometric Systems and Radiation Monitoring", "Laboratory Technologies. Bespoke smart solutions.", "Head of Industrial Automation Division", "Projects and Services for Nuclear Power"]}, "geometry": {"type": "Point", "coordinates": [15.895216385585567, 49.21873590475111]}, "type": "Feature"}, {"properties": {"name": "TEAZ s.r.o.", "address": "t\u0159. Tom\u00e1\u0161e Bati 1658, 76502 Otrokovice", "url": "http://www.teaz.cz/", "sectors": ["AU", "HT"], "specialization": [null]}, "geometry": {"type": "Point", "coordinates": [17.518467194820094, 49.21640098813711]}, "type": "Feature"}, {"properties": {"name": "FPOS a.s.", "address": "T\u0159ebovsk\u00e1 111, 56201 \u00dast\u00ed nad Orlic\u00ed", "url": "http://www.fpos.cz/", "sectors": ["AU", "HT"], "specialization": [null]}, "geometry": {"type": "Point", "coordinates": [16.39585108995631, 49.96776222140159]}, "type": "Feature"}, {"properties": {"name": "EVC Group s.r.o.", "address": "N\u00e1dra\u017en\u00ed 804, 76824 Hul\u00edn", "url": "http://www.evcgroup.cz/", "sectors": ["AU", "CT"], "specialization": [null]}, "geometry": {"type": "Point", "coordinates": [17.478937639396065, 49.31587034198783]}, "type": "Feature"}, {"properties": {"name": "V\u00daH\u017d a.s.", "address": "Smrkov\u00e1 240, 27361 Velk\u00e1 Dobr\u00e1", "url": "http://www.vuhz.cz/", "sectors": ["HT", "NN"], "specialization": [null]}, "geometry": {"type": "Point", "coordinates": [14.081077643349959, 50.113253445149425]}, "type": "Feature"}, {"properties": {"name": "V\u00daK, spol. s r.o.", "address": "t\u0159. Tom\u00e1\u0161e Bati 1640, 76502 Otrokovice", "url": "http://www.vuksro.cz/", "sectors": ["HT"], "specialization": [null]}, "geometry": {"type": "Point", "coordinates": [17.521956845253285, 49.215968362794555]}, "type": "Feature"}, {"properties": {"name": "EBIS, spol. s r. o.", "address": "K\u0159i\u017e\u00edkova 2962/70a, Kr\u00e1lovo Pole, 61200 Brno", "url": "http://www.ebis.cz/", "sectors": ["EE", "IT"], "specialization": [null]}, "geometry": {"type": "Point", "coordinates": [16.61693658175773, 49.22252485303287]}, "type": "Feature"}, {"properties": {"name": "V\u00daB A.S.", "address": "Na Ostrov\u011b 1165, 56201 \u00dast\u00ed nad Orlic\u00ed", "url": "http://www.vubas.cz/", "sectors": ["HT", "NN"], "specialization": [null]}, "geometry": {"type": "Point", "coordinates": [16.38961951079048, 49.97163253328651]}, "type": "Feature"}, {"properties": {"name": "SentiSquare s.r.o.", "address": "L\u00edskov\u00e1 1483/4, Doubravka, 31200 Plze\u0148", "url": "http://www.sentisquare.com/", "sectors": ["IT"], "specialization": [null, null]}, "geometry": {"type": "Point", "coordinates": [13.427995975825718, 49.75083075941217]}, "type": "Feature"}, {"properties": {"name": "Ricardo Prague s.r.o.", "address": "Th\u00e1mova 183/11, Karl\u00edn, 18600 Praha 8", "url": "http://www.ricardo.com", "sectors": ["EE", "HT", "CT"], "specialization": [null]}, "geometry": {"type": "Point", "coordinates": [14.452488222980602, 50.091953327934554]}, "type": "Feature"}, {"properties": {"name": "VUES Brno s.r.o.", "address": "Mosteck\u00e1 992/26, Husovice, 61400 Brno", "url": "http://www.vues.cz/", "sectors": ["EE", "HT"], "specialization": [null]}, "geometry": {"type": "Point", "coordinates": [16.63063673700874, 49.207294950694866]}, "type": "Feature"}, {"properties": {"name": "INDET SAFETY SYSTEMS a.s.", "address": "Bobrky 462, 75501 Vset\u00edn", "url": "http://www.iss-cz.com/", "sectors": ["AU"], "specialization": [null]}, "geometry": {"type": "Point", "coordinates": [17.95722795019865, 49.36366178065436]}, "type": "Feature"}, {"properties": {"name": "OZM Research s.r.o.", "address": "Bl\u00ed\u017e\u0148ovice 32, 53862 Hroch\u016fv T\u00fdnec", "url": "http://www.ozm.cz/", "sectors": ["CT", "NN"], "specialization": [null]}, "geometry": {"type": "Point", "coordinates": [15.940294381637585, 49.955545758207485]}, "type": "Feature"}, {"properties": {"name": "GRYF HB, spol. s r.o.", "address": "\u010cechova 314, 58001 Havl\u00ed\u010dk\u016fv Brod", "url": "http://www.gryf.eu/", "sectors": ["EE"], "specialization": [null]}, "geometry": {"type": "Point", "coordinates": [15.572387504304215, 49.60210348501266]}, "type": "Feature"}, {"properties": {"name": "GALATEK a.s.", "address": "Na Pl\u00e1ck\u00e1ch 647, 58401 Lede\u010d nad S\u00e1zavou", "url": "http://www.galatek.cz/", "sectors": ["HT", "NN"], "specialization": [null]}, "geometry": {"type": "Point", "coordinates": [15.278134759061997, 49.683644260245]}, "type": "Feature"}, {"properties": {"name": "SINTEX, a.s.", "address": "Moravsk\u00e1 1078, 56002 \u010cesk\u00e1 T\u0159ebov\u00e1", "url": "http://www.sintex.cz/", "sectors": ["NN"], "specialization": [null]}, "geometry": {"type": "Point", "coordinates": [16.45359723422, 49.8974321088324]}, "type": "Feature"}, {"properties": {"name": "MSV elektronika s.r.o.", "address": "Po\u0161tovn\u00ed 662, Butovice, 74213 Stud\u00e9nka", "url": "http://www.msvelektronika.cz/", "sectors": ["EE"], "specialization": [null]}, "geometry": {"type": "Point", "coordinates": [18.04967244632699, 49.716031043711624]}, "type": "Feature"}, {"properties": {"name": "FOLLER, s.r.o.", "address": "Charbulova 292/10, \u010cernovice, 61800 Brno", "url": "http://www.foller.biz/", "sectors": ["HT", "NN"], "specialization": [null]}, "geometry": {"type": "Point", "coordinates": [16.63207951494538, 49.1886953987966]}, "type": "Feature"}, {"properties": {"name": "SMT plus.CZ s.r.o.", "address": "\u00dadoln\u00ed 244/53, Str\u00e1nice, 60200 Brno", "url": "http://www.smtplus.cz/", "sectors": ["EE"], "specialization": [null]}, "geometry": {"type": "Point", "coordinates": [16.592437808728363, 49.198186900297415]}, "type": "Feature"}, {"properties": {"name": "INTERFLUID spol. s r.o.", "address": "Pohrani\u010dn\u00ed 3272/130, Moravsk\u00e1 Ostrava, 70300 Ostrava", "url": "http://interfluid.com/", "sectors": ["EE", "HT"], "specialization": [null]}, "geometry": {"type": "Point", "coordinates": [18.25889142666063, 49.81617219637622]}, "type": "Feature"}, {"properties": {"name": "EVP\u00da Defence a.s.", "address": "Jakt\u00e1\u0159e 1781, Ma\u0159atice, 68601 Uhersk\u00e9 Hradi\u0161t\u011b", "url": "http://www.evpudefence.com/", "sectors": ["IT", "EE"], "specialization": [null]}, "geometry": {"type": "Point", "coordinates": [17.483901346798845, 49.080600478253565]}, "type": "Feature"}, {"properties": {"name": "Stroj\u00edrensk\u00e9 inova\u010dn\u00ed centrum, s.r.o.", "address": "Paseky 616, 76311 \u017delechovice nad D\u0159evnic\u00ed", "url": "http://www.siczlin.cz/", "sectors": ["HT"], "specialization": [null]}, "geometry": {"type": "Point", "coordinates": [17.741279067004474, 49.200765126310436]}, "type": "Feature"}, {"properties": {"name": "Eyedea Recognition s.r.o.", "address": "Vy\u0161ehradsk\u00e1 320/49, Nov\u00e9 M\u011bsto, 12800 Praha 2", "url": "http://www.eyedea.cz", "sectors": ["IT"], "specialization": ["Recognition software for traffic applications", "Face recognition", "Image/Object Retrieval - Searching for similar images in huge image databases."]}, "geometry": {"type": "Point", "coordinates": [14.417939038986816, 50.072121610196014]}, "type": "Feature"}, {"properties": {"name": "MATERI\u00c1LOV\u00dd A METALURGICK\u00dd V\u00ddZKUM s.r.o.", "address": "Pohrani\u010dn\u00ed 693/31, V\u00edtkovice, 70300 Ostrava", "url": "http://www.mmvyzkum.cz", "sectors": ["NN", "HT"], "specialization": ["Evaluation of conventional and non-conventional material properties in the accredited testing laboratory of fatigue and brittle fracture behaviour. Evaluation of corrosion resistance of material using HIC and SCC tests in hydrogen sulphide, procedures for measuring emissions of solid and gaseous pollutants, sampling procedures for determination of heavy metals and persistent substances in emissions.", "Research on producing and forming steels, research on the processes of secondary metallurgy, research on advanced forming technologies and controlled forming processes using the universal SETARAM plastometer.", "Metalography and structural analysis, Evaluation of creep properties, especially to secondary creep rate.", "Development and production of test tools and equipment, special technical measurement"]}, "geometry": {"type": "Point", "coordinates": [18.25898921798171, 49.81566554502756]}, "type": "Feature"}, {"properties": {"name": "Advanced Materials-JTJ s.r.o.", "address": "\u010d.p. 23, 27301 Kamenn\u00e9 \u017dehrovice", "url": "http://www.advancedmaterials1.com", "sectors": ["NN"], "specialization": ["Photocatalytic TiO2 coatings", "Nano TiO2 manufacturing process"]}, "geometry": {"type": "Point", "coordinates": [14.03104671749322, 50.13713330587572]}, "type": "Feature"}, {"properties": {"name": "ASIO, spol. s r.o.", "address": "Sp\u00e1\u010dilka 83, 66451 Ji\u0159\u00edkovice", "url": "http://www.asio.cz", "sectors": ["CT", "NN"], "specialization": ["Decentralized wastewater treatment", "Energy conservation measures", "Phosphorus recovery", "Nanotechnologies", "Industrial wastewater"]}, "geometry": {"type": "Point", "coordinates": [16.757963301585345, 49.17021649766216]}, "type": "Feature"}, {"properties": {"name": "FARMAK, a.s.", "address": "Na vl\u010dinci 16/3, Kl\u00e1\u0161tern\u00ed Hradisko, 77900 Olomouc", "url": "http://www.farmak.cz", "sectors": ["BI"], "specialization": ["Active Pharmaceutical Ingredients, chemistry, scale up, optimization, production, small volume production"]}, "geometry": {"type": "Point", "coordinates": [17.26553940362112, 49.609543925541786]}, "type": "Feature"}, {"properties": {"name": "Institute of Experimental Medicine, Academy of Sciences of the Czech Republic, v.v.i.", "address": "V\u00edde\u0148sk\u00e1 1083, Kr\u010d, 14200 Praha 4", "url": "http://www.iem.cas.cz", "sectors": ["BI"], "specialization": ["Neuroscience", "Tissue Engineering", "Molecular Biology of Cancer", "Genetic Ecotoxicology", "Electrophysiology, gene expression profiling and calcium imaging in nerve cells"]}, "geometry": {"type": "Point", "coordinates": [14.465897146196308, 50.01729947026278]}, "type": "Feature"}, {"properties": {"name": "Ingersoll-Rand CZ s.r.o.", "address": "\u0160umpersk\u00e1 1345, 78391 Uni\u010dov", "url": "http://www.irco.cz", "sectors": ["EE"], "specialization": [null]}, "geometry": {"type": "Point", "coordinates": [17.118484868111988, 49.783435608068]}, "type": "Feature"}, {"properties": {"name": "Bohemia Pharmaceuticals, s.r.o. (IMUNA CZ Ltd.)", "address": "Pr\u016fmyslov\u00e1 1472/11, Hostiva\u0159, 10200 Praha 10", "url": "http://www.imuna.cz", "sectors": ["BI"], "specialization": ["Production and control of  bacteriophages and  bacterial lysates"]}, "geometry": {"type": "Point", "coordinates": [14.535835676579872, 50.06630358107172]}, "type": "Feature"}, {"properties": {"name": "Sevapharma Inc.", "address": "Pr\u016fmyslov\u00e1 1472/11, Hostiva\u0159, 10200 Praha 10", "url": "http://www.sevapharma.cz", "sectors": ["BI"], "specialization": ["Vaccines \u2013 R&DI and production of viral (e.g. measles, mums and/or rubella) and bacterial (e.g. tetanus) vaccines._x000D_\nAllergens \u2013 R&D&I and production of human diagnostic and hyposensibilisation allergens", "Allergens \u2013 products for diagnosis and specific allergenic immunotherapy (SAIT) of pollen, mites, insects, bacterial and fungal allergies.", "Immunomodulators \u2013 product for specific treatment of patients with impaired cellular immunity."]}, "geometry": {"type": "Point", "coordinates": [14.535835676579872, 50.06630358107172]}, "type": "Feature"}, {"properties": {"name": "VUAB Pharma a.s.", "address": "Vltavsk\u00e1 53, 25263 Roztoky", "url": "http://www.vuab.cz", "sectors": ["BI"], "specialization": [null]}, "geometry": {"type": "Point", "coordinates": [14.400766192812863, 50.16130909471813]}, "type": "Feature"},