{"type": "FeatureCollection", "features": [{"properties": {"name": "Impact Hub Praha", "type": ["co-working"], "address": "Drtinova 557/10, Sm\u00edchov, 15000 Praha 5", "url": "http://www.hubpraha.cz/ "}, "geometry": {"type": "Point", "coordinates": [14.402335908782504, 50.076463664820935]}, "type": "Feature"}, {"properties": {"name": "Node5", "type": ["co-working"], "address": "Radlick\u00e1 180/50, Sm\u00edchov, 15000 Praha 5", "url": "http://node5.cz/"}, "geometry": {"type": "Point", "coordinates": [14.402804183356517, 50.066434759643606]}, "type": "Feature"}, {"properties": {"name": "Cool working tc", "type": ["co-working"], "address": "\u010ceskoslovensk\u00e9 arm\u00e1dy 254/8, 50003 Hradec Kr\u00e1lov\u00e9", "url": "http://www.coolworking.cz/"}, "geometry": {"type": "Point", "coordinates": [15.829891576335031, 50.20968382613828]}, "type": "Feature"}, {"properties": {"name": "GoUP! Startup home", "type": ["co-working"], "address": "t\u0159\u00edda M\u00edru 60, Zelen\u00e9 P\u0159edm\u011bst\u00ed, 53002 Pardubice", "url": "http://www.gush.cz/o-goup"}, "geometry": {"type": "Point", "coordinates": [15.77511734648518, 50.03711251522031]}, "type": "Feature"}, {"properties": {"name": "TechSquare", "type": ["co-working"], "address": "K\u0159\u00ed\u017eov\u00e1 2598/4, Sm\u00edchov, 15000 Praha 5", "url": "http://www.techsquare.cz/"}, "geometry": {"type": "Point", "coordinates": [14.406994721847482, 50.05169065387898]}, "type": "Feature"}, {"properties": {"name": "Coworking Center \u010cesk\u00e9 Bud\u011bjovice", "type": ["co-working"], "address": "Chel\u010dick\u00e9ho 1777/18a, \u010cesk\u00e9 Bud\u011bjovice 6, 37001 \u010cesk\u00e9 Bud\u011bjovice", "url": "http://www.coworkingcb.cz/"}, "geometry": {"type": "Point", "coordinates": [14.486354232614971, 48.976185795252505]}, "type": "Feature"}, {"properties": {"name": "DeskRoom", "type": ["co-working"], "address": "Prokopsk\u00e1 296/8, Mal\u00e1 Strana, 11800 Praha 1", "url": "http://www.deskroom.cz/"}, "geometry": {"type": "Point", "coordinates": [14.404457533021338, 50.086804542361016]}, "type": "Feature"}, {"properties": {"name": "Coworking Pardubice", "type": ["co-working"], "address": "n\u00e1b\u0159e\u017e\u00ed Z\u00e1vodu m\u00edru 2740, Zelen\u00e9 P\u0159edm\u011bst\u00ed, 53002 Pardubice", "url": "http://www.coworking-pardubice.cz/"}, "geometry": {"type": "Point", "coordinates": [15.76111456778498, 50.03826752202103]}, "type": "Feature"}, {"properties": {"name": "Coworking Olomouc", "type": ["co-working"], "address": "Jakoubka ze St\u0159\u00edbra 781/44, Nov\u00e9 Sady, 77900 Olomouc", "url": "http://www.coworkingolomouc.cz/"}, "geometry": {"type": "Point", "coordinates": [17.25870990355307, 49.582289312707196]}, "type": "Feature"}, {"properties": {"name": "Coworking DEPO2015", "type": ["co-working"], "address": "Presslova 2992/14, Ji\u017en\u00ed P\u0159edm\u011bst\u00ed, 30100 Plze\u0148", "url": "http://bit.ly/CoworkingDEPO2015"}, "geometry": {"type": "Point", "coordinates": [13.382322974177544, 49.73832409936298]}, "type": "Feature"}, {"properties": {"name": "Atelier Pexeso z.\u00fa.", "type": ["co-working"], "address": "Brat\u0159\u00ed \u010capk\u016f 1852/26, Vinohrady, 10100 Praha 10", "url": "http://www.atelierpexeso.cz/"}, "geometry": {"type": "Point", "coordinates": [14.466778233625671, 50.075132496224676]}, "type": "Feature"}, {"properties": {"name": "MAM Prostor", "type": ["co-working"], "address": "U tepl\u00e1rny 1174/3, Ko\u0161\u00ed\u0159e, 15800 Praha 5", "url": "http://www.mamprostor.cz/coworking/"}, "geometry": {"type": "Point", "coordinates": [14.382683461407064, 50.06488074384775]}, "type": "Feature"}, {"properties": {"name": "Co-working \u017d\u010f\u00e1r", "type": ["co-working"], "address": "Jamsk\u00e1 1670/30, \u017d\u010f\u00e1r nad S\u00e1zavou 1, 59101 \u017d\u010f\u00e1r nad S\u00e1zavou", "url": "https://www.facebook.com/coworkingzdar"}, "geometry": {"type": "Point", "coordinates": [15.953059857773006, 49.558132760921545]}, "type": "Feature"}, {"properties": {"name": "Creative Gate", "type": ["co-working"], "address": "Jind\u0159i\u0161sk\u00e1 901/5, Nov\u00e9 M\u011bsto, 11000 Praha 1", "url": "http://www.creativegate.cz/"}, "geometry": {"type": "Point", "coordinates": [14.427097336945979, 50.083270114194626]}, "type": "Feature"}, {"properties": {"name": "Locus Workspace", "type": ["co-working"], "address": "Krakovsk\u00e1 1307/22, Nov\u00e9 M\u011bsto, 11000 Praha 1", "url": "http://en.locusworkspace.cz/"}, "geometry": {"type": "Point", "coordinates": [14.428661324791571, 50.07945727686892]}, "type": "Feature"}, {"properties": {"name": "Paper Hub", "type": ["co-working"], "address": "D\u011blnick\u00e1 475/43, Hole\u0161ovice, 17000 Praha 7", "url": "http://paperhub.cz/"}, "geometry": {"type": "Point", "coordinates": [14.450559533736131, 50.10342873727059]}, "type": "Feature"}, {"properties": {"name": "Pracovna", "type": ["co-working"], "address": "Vlkova 628/36, \u017di\u017ekov, 13000 Praha 3", "url": "http://pracovna.cz/"}, "geometry": {"type": "Point", "coordinates": [14.448136006885395, 50.0837345726694]}, "type": "Feature"}, {"properties": {"name": "Pracovna v parku", "type": ["co-working"], "address": "Za Karl\u00ednsk\u00fdm p\u0159\u00edstavem 683/4, Karl\u00edn, 18600 Praha 8", "url": "http://www.pracovnavparku.cz/"}, "geometry": {"type": "Point", "coordinates": [14.44921502339469, 50.09589475825599]}, "type": "Feature"}, {"properties": {"name": "IN-SPIRO", "type": ["co-working"], "address": "Argentinsk\u00e1 286/38, Hole\u0161ovice, 17000 Praha 7", "url": "http://www.in-spiro.cz/"}, "geometry": {"type": "Point", "coordinates": [14.444760560661177, 50.10902404693209]}, "type": "Feature"}, {"properties": {"name": "C3", "type": ["co-working"], "address": "Nek\u00e1zanka 877/17, Nov\u00e9 M\u011bsto, 11000 Praha 1", "url": "http://c3cowork.com/"}, "geometry": {"type": "Point", "coordinates": [14.428593054526099, 50.08482323144187]}, "type": "Feature"}, {"properties": {"name": "ART\u011aK", "type": ["co-working"], "address": "Koz\u00e1ck\u00e1 197/10, Vr\u0161ovice, 10100 Praha 10", "url": "http://artekcoworking.wix.com/artekshop#!contact/c11m6"}, "geometry": {"type": "Point", "coordinates": [14.445853065715673, 50.0710975021955]}, "type": "Feature"}, {"properties": {"name": "Office coffee bar", "type": ["co-working"], "address": "Rumunsk\u00e1 14/27, Vinohrady, 12000 Praha 2", "url": "http://officecoffeebar.cz/"}, "geometry": {"type": "Point", "coordinates": [14.434329100782104, 50.074474686151625]}, "type": "Feature"}, {"properties": {"name": "Free2Work", "type": ["co-working"], "address": "Karlovo n\u00e1m\u011bst\u00ed 325/7, Nov\u00e9 M\u011bsto, 12000 Praha 2", "url": "http://www.free2work.cz/"}, "geometry": {"type": "Point", "coordinates": [14.418767282711627, 50.07484330721339]}, "type": "Feature"}, {"properties": {"name": "Baby Office", "type": ["co-working"], "address": "Pod vi\u0161\u0148ovkou 1662/25, Kr\u010d, 14000 Praha 4", "url": "http://www.babyoffice.cz/"}, "geometry": {"type": "Point", "coordinates": [14.453068629272023, 50.03131748556846]}, "type": "Feature"}, {"properties": {"name": "Mumraj", "type": ["co-working"], "address": "Meziles\u00ed 2058/6, Horn\u00ed Po\u010dernice, 19300 Praha 9", "url": "http://www.ccmumraj.cz/"}, "geometry": {"type": "Point", "coordinates": [14.59949899578623, 50.11215305585639]}, "type": "Feature"}, {"properties": {"name": "Letnice", "type": ["co-working"], "address": "Star\u00e1 n\u00e1ves 691, Let\u0148any, 19900 Praha 9", "url": "http://klubletnice.cz/"}, "geometry": {"type": "Point", "coordinates": [14.51284077082689, 50.13910414476033]}, "type": "Feature"}, {"properties": {"name": "Business Place", "type": ["co-working"], "address": "Soukenick\u00e1 2082/7, Nov\u00e9 M\u011bsto, 11000 Praha 1", "url": "http://www.businessplace.cz/"}, "geometry": {"type": "Point", "coordinates": [14.428636574790062, 50.091277440229256]}, "type": "Feature"}, {"properties": {"name": "REmmarable Coworking", "type": ["co-working"], "address": "K\u0159emencova 178/10, Nov\u00e9 M\u011bsto, 11000 Praha 1", "url": "https://www.facebook.com/pages/REmmarkable-COworking-Praha/1470075989893865"}, "geometry": {"type": "Point", "coordinates": [14.417458166495306, 50.07870505544933]}, "type": "Feature"}, {"properties": {"name": "Mamaoffice.cz", "type": ["co-working"], "address": "Banskobystrick\u00e1 2080/11, Dejvice, 16000 Praha 6", "url": "http://mamaoffice.webnode.cz/"}, "geometry": {"type": "Point", "coordinates": [14.391865301154708, 50.100103606839795]}, "type": "Feature"}, {"properties": {"name": "Impact Hub Brno", "type": ["co-working"], "address": "Cyrilsk\u00e1 508/7, Trnit\u00e1, 60200 Brno", "url": "http://www.hubbrno.cz/"}, "geometry": {"type": "Point", "coordinates": [16.62064156152342, 49.19030443600415]}, "type": "Feature"}, {"properties": {"name": "Melvil Space", "type": ["co-working"], "address": "Minoritsk\u00e1 473/10, Brno-m\u011bsto, 60200 Brno", "url": "https://www.icloud.com/sharedalbum/cs-cz/#B02Gf693Zfp5GU"}, "geometry": {"type": "Point", "coordinates": [16.61102881774572, 49.19390552684252]}, "type": "Feature"}, {"properties": {"name": "Cowo Brno", "type": ["co-working"], "address": "Moravsk\u00e9 n\u00e1m\u011bst\u00ed 127/3, Brno-m\u011bsto, 60200 Brno", "url": "http://www.cowobrno.cz/"}, "geometry": {"type": "Point", "coordinates": [16.608112272731624, 49.19742873555388]}, "type": "Feature"}, {"properties": {"name": "TOP CENTRUM PODNIKATELEK", "type": ["co-working"], "address": "Lidick\u00e1 1869/28, \u010cern\u00e1 Pole, 60200 Brno", "url": "http://www.tcpbrno.cz/"}, "geometry": {"type": "Point", "coordinates": [16.60811978999357, 49.20249649471443]}, "type": "Feature"}, {"properties": {"name": "MITROVSKI", "type": ["co-working"], "address": "Veletr\u017en\u00ed 716/13, Star\u00e9 Brno, 60300 Brno", "url": "http://www.mitrovski.cz/coworking/"}, "geometry": {"type": "Point", "coordinates": [16.58885524940719, 49.18816446772723]}, "type": "Feature"}, {"properties": {"name": "Coworking Centrum s.r.o.", "type": ["co-working"], "address": "Cyrilsk\u00e1 508/7, Trnit\u00e1, 60200 Brno", "url": "http://www.coworkingcentrum.cz/"}, "geometry": {"type": "Point", "coordinates": [16.62064156152342, 49.19030443600415]}, "type": "Feature"}, {"properties": {"name": "Techsquat Brno", "type": ["co-working"], "address": "Veve\u0159\u00ed 2218/131, \u017dabov\u0159esky, 61600 Brno", "url": "http://techsquat.com/brno.html"}, "geometry": {"type": "Point", "coordinates": [16.587302307615506, 49.21009211586007]}, "type": "Feature"}, {"properties": {"name": "KoPlac", "type": ["co-working"], "address": "P\u0159\u00edkop 27/2a, Z\u00e1brdovice, 60200 Brno", "url": "http://koplac.cz/"}, "geometry": {"type": "Point", "coordinates": [16.61401567442825, 49.20060248505903]}, "type": "Feature"}, {"properties": {"name": "Impact Hub Ostrava", "type": ["co-working"], "address": "Sokolsk\u00e1 t\u0159\u00edda 1263/24, Moravsk\u00e1 Ostrava, 70200 Ostrava", "url": "http://www.hubostrava.cz/"}, "geometry": {"type": "Point", "coordinates": [18.29237769345884, 49.83928164453932]}, "type": "Feature"}, {"properties": {"name": "Coworking 2.0", "type": ["co-working"], "address": "Kuku\u010d\u00ednova 799/10, Hulv\u00e1ky, 70900 Ostrava", "url": "http://lukasgren.cz/post/75586901736/coworking-2-0"}, "geometry": {"type": "Point", "coordinates": [18.246532772958066, 49.82538436224221]}, "type": "Feature"}, {"properties": {"name": "Co working Kol\u00edn", "type": ["co-working"], "address": "Kutnohorsk\u00e1 40, Kol\u00edn IV, 28002 Kol\u00edn", "url": "http://coworkingkolin.cz/"}, "geometry": {"type": "Point", "coordinates": [15.204334322697836, 50.02716175428636]}, "type": "Feature"}, {"properties": {"name": "Podnik\u00e1n\u00ed v\u0161em", "type": ["co-working"], "address": "n\u00e1m\u011bst\u00ed S\u00edtn\u00e1 3106, Kro\u010dehlavy, 27201 Kladno", "url": "http://www.podnikanijereseni.cz/coworking.html"}, "geometry": {"type": "Point", "coordinates": [14.101690116420606, 50.136340816296276]}, "type": "Feature"}, {"properties": {"name": "Centrum voln\u00e9ho \u010dasu", "type": ["co-working"], "address": "Nosticova 590, 25064 M\u011b\u0161ice", "url": "http://www.cvcmesice.cz/"}, "geometry": {"type": "Point", "coordinates": [14.52474876783252, 50.19821508077375]}, "type": "Feature"}, {"properties": {"name": "Co-working centrum P\u0159\u00edbor", "type": ["co-working"], "address": "n\u00e1m\u011bst\u00ed Sigmunda Freuda 10, 74258 P\u0159\u00edbor", "url": "http://www.ccpribor.cz/"}, "geometry": {"type": "Point", "coordinates": [18.1434607663426, 49.639844592520156]}, "type": "Feature"}]}