{"type": "FeatureCollection", "features": [{"properties": {"name": "PIXBUF s.r.o.", "url": "http://www.pixbuf.com", "address": "\u010d.ev. 193, 40747 Doubice"}, "geometry": {"type": "Point", "coordinates": [14.455591065434207, 50.8872074441873]}, "type": "Feature"}, {"properties": {"name": "Oscar Tech s.r.o.", "url": "http://www.oscarsenior.com", "address": "Kub\u00e1nsk\u00e9 n\u00e1m\u011bst\u00ed 1391/11, Vr\u0161ovice, 10000 Praha 10"}, "geometry": {"type": "Point", "coordinates": [14.481079383881573, 50.071593845008614]}, "type": "Feature"}, {"properties": {"name": "Six Guys Labs s.r.o.", "url": "http://www.actijoy.com", "address": "Wenzigova 260/3, V\u00fdchodn\u00ed P\u0159edm\u011bst\u00ed, 30100 Plze\u0148"}, "geometry": {"type": "Point", "coordinates": [13.38932845245103, 49.746287265916074]}, "type": "Feature"}, {"properties": {"name": "XTND s.r.o.", "url": "http://www.getxtnd.com", "address": "Sokolsk\u00e1 t\u0159\u00edda 1263/24, Moravsk\u00e1 Ostrava, 70200 Ostrava"}, "geometry": {"type": "Point", "coordinates": [18.29237769345884, 49.83928164453932]}, "type": "Feature"}, {"properties": {"name": "Legito s.r.o.", "url": "http://www.legito.com", "address": "Pod Lipami 19, Zem\u011bchy, 27801 Kralupy nad Vltavou"}, "geometry": {"type": "Point", "coordinates": [14.267288143291465, 50.23020878715701]}, "type": "Feature"}, {"properties": {"name": "ThreatMark s.r.o.", "url": "http://www.threatmark.com", "address": "Pra\u017e\u00e1kova 213/10, Horn\u00ed Her\u0161pice, 61900 Brno"}, "geometry": {"type": "Point", "coordinates": [16.60490167896799, 49.162596941551655]}, "type": "Feature"}, {"properties": {"name": "Largos Media", "url": "http://www.viagoood.com", "address": "Stra\u0161nick\u00e1 3165/1b, Z\u00e1b\u011bhlice, 10200 Praha 10"}, "geometry": {"type": "Point", "coordinates": [14.512732071758236, 50.0581617334938]}, "type": "Feature"}, {"properties": {"name": "Incomaker s.r.o.", "url": "http://www.incomaker.com", "address": "Ha\u0161kova 1582, 25263 Roztoky"}, "geometry": {"type": "Point", "coordinates": [14.391253286931045, 50.167202777601965]}, "type": "Feature"}, {"properties": {"name": "NANITS UNIVERSE LTD.", "url": "http://www.nanitschronicles.com", "address": "Nuderova 598, Klatovy II, 33901 Klatovy"}, "geometry": {"type": "Point", "coordinates": [13.303524196246121, 49.39930690642837]}, "type": "Feature"}, {"properties": {"name": "Battswap CZ s.r.o.", "url": "http://www.battswap.com", "address": "Sokolsk\u00e1 30, \u0160umn\u00e1, 43601 Litv\u00ednov"}, "geometry": {"type": "Point", "coordinates": [13.593746574327085, 50.606333951909065]}, "type": "Feature"}, {"properties": {"name": "Simple Dent s.r.o.", "url": "www.simpledent.cz, http://app.simpledent.cz", "address": "Pod Harfou 938/48, Vyso\u010dany, 19000 Praha 9"}, "geometry": {"type": "Point", "coordinates": [14.510678000773456, 50.103634806099514]}, "type": "Feature"}, {"properties": {"name": "XEVOS Group s.r.o.", "url": "http://www.xevos.eu, www.xevos.cloud", "address": "Koda\u0148sk\u00e1 1441/46, Vr\u0161ovice, 10100 Praha 10"}, "geometry": {"type": "Point", "coordinates": [14.463357458538217, 50.06958515208261]}, "type": "Feature"}, {"properties": {"name": "Dataddo s.r.o.", "url": "http://www.dataddo.com", "address": "V. Dobi\u00e1\u0161e 549, Hol\u00ednsk\u00e9 P\u0159edm\u011bst\u00ed, 50601 Ji\u010d\u00edn"}, "geometry": {"type": "Point", "coordinates": [15.351995510795971, 50.44346713617337]}, "type": "Feature"}, {"properties": {"name": "Decissio s.r.o.", "url": "http://decissio.com", "address": "Ji\u010d\u00ednsk\u00e1 226/17, \u017di\u017ekov, 13000 Praha 3"}, "geometry": {"type": "Point", "coordinates": [14.460451970496228, 50.07865211151879]}, "type": "Feature"}, {"properties": {"name": "AquaQube s.r.o.", "url": "http://www.AquaQube.cz", "address": "Chl\u00e1dkova 2016/24c, \u017dabov\u0159esky, 61600 Brno"}, "geometry": {"type": "Point", "coordinates": [16.586905844681212, 49.21256260498712]}, "type": "Feature"}, {"properties": {"name": "Brightify s.r.o.", "url": "http://www.brightify.org, www.reactant.tech", "address": "Rybn\u00e1 716/24, Star\u00e9 M\u011bsto, 11000 Praha 1"}, "geometry": {"type": "Point", "coordinates": [14.426041907615573, 50.09033938925729]}, "type": "Feature"}, {"properties": {"name": "StatusDroid s.r.o.", "url": "http://www.statusdroid.com", "address": "Mladotick\u00e1 282/13, Ruzyn\u011b, 16100 Praha 6"}, "geometry": {"type": "Point", "coordinates": [14.324125515164015, 50.086504110502595]}, "type": "Feature"}, {"properties": {"name": "Threatmark s.r.o.", "url": "https://www.threatmark.com/ ", "address": "Pra\u017e\u00e1kova 213/10, Horn\u00ed Her\u0161pice, 61900 Brno"}, "geometry": {"type": "Point", "coordinates": [16.60490167896799, 49.162596941551655]}, "type": "Feature"}, {"properties": {"name": "PlasmaAgro s.r.o.", "url": "http://plasma-agro.cz/cs/domu/ ", "address": "Jungmannova 695/42, \u010cesk\u00e9 Bud\u011bjovice 7, 37001 \u010cesk\u00e9 Bud\u011bjovice"}, "geometry": {"type": "Point", "coordinates": [14.471909839437256, 48.956448811434946]}, "type": "Feature"}, {"properties": {"name": "Nadkov s.r.o.", "url": "http://www.nadkov.cz/ ", "address": "\u010d.p. 148, 54921 \u010cesk\u00e1 \u010cermn\u00e1"}, "geometry": {"type": "Point", "coordinates": [16.22702424406796, 50.40286001032489]}, "type": "Feature"}, {"properties": {"name": "Webscope", "url": "https://www.goodevent.io/ ", "address": "Cyrilsk\u00e1 508/7, Trnit\u00e1, 60200 Brno"}, "geometry": {"type": "Point", "coordinates": [16.62064156152342, 49.19030443600415]}, "type": "Feature"}, {"properties": {"name": "StatusDroid s.r.o.", "url": "http://www.statusdroid.com", "address": "Mladotick\u00e1 282/13, Ruzyn\u011b, 16100 Praha 6"}, "geometry": {"type": "Point", "coordinates": [14.324125515164015, 50.086504110502595]}, "type": "Feature"}, {"properties": {"name": "Langino.s.r.o.", "url": "https://langino.com/ ", "address": "Kytnerova 242/34, Medl\u00e1nky, 62100 Brno"}, "geometry": {"type": "Point", "coordinates": [16.575824446167932, 49.242785763613455]}, "type": "Feature"}, {"properties": {"name": "SuperKod\u00e9\u0159i s.r.o.", "url": "http://www.superkoderi.cz/ ", "address": "Hn\u011bvkovsk\u00e9ho 30/65, Kom\u00e1rov, 61700 Brno"}, "geometry": {"type": "Point", "coordinates": [16.627287223214758, 49.16905536364745]}, "type": "Feature"}, {"properties": {"name": "FROU FROU, s.r.o.", "url": "http://60seconds.cz/ ", "address": "Kounicova 290/51, Veve\u0159\u00ed, 60200 Brno"}, "geometry": {"type": "Point", "coordinates": [16.59980623997317, 49.203232240425166]}, "type": "Feature"}, {"properties": {"name": "New Era Materials s.r.o.", "url": "http://as-set-cz.webnode.cz/ ", "address": "Hn\u011bvkovsk\u00e9ho 30/65, Kom\u00e1rov, 61700 Brno"}, "geometry": {"type": "Point", "coordinates": [16.627287223214758, 49.16905536364745]}, "type": "Feature"}]}