{"features": [{"geometry": {"coordinates": [14.4554866, 50.8871393], "type": "Point"}, "properties": {"name": "PIXBUF s.r.o.", "address": "Doubice 193, 407 47 Doubice, Czechia", "url": "www.pixbuf.com"}, "type": "Feature"}, {"geometry": {"coordinates": [14.481012, 50.0715243], "type": "Point"}, "properties": {"name": "Oscar Tech s.r.o.", "address": "Kub\u00e1nsk\u00e9 n\u00e1m. 1391/11, Vr\u0161ovice, 100 00 Praha-Praha 10, Czechia", "url": "www.oscarsenior.com"}, "type": "Feature"}, {"geometry": {"coordinates": [13.3892962, 49.74619269999999], "type": "Point"}, "properties": {"name": "Six Guys Labs s.r.o.", "address": "Wenzigova 260/3, V\u00fdchodn\u00ed P\u0159edm\u011bst\u00ed, 301 00 Plze\u0148-Plze\u0148 3, Czechia", "url": "www.actijoy.com"}, "type": "Feature"}, {"geometry": {"coordinates": [18.29234, 49.839294], "type": "Point"}, "properties": {"name": "XTND s.r.o.", "address": "Sokolsk\u00e1 t\u0159. 1263/24, Moravsk\u00e1 Ostrava, 702 00 Ostrava-Moravsk\u00e1 Ostrava a P\u0159\u00edvoz, Czechia", "url": "www.getxtnd.com"}, "type": "Feature"}, {"geometry": {"coordinates": [14.2672174, 50.2301333], "type": "Point"}, "properties": {"name": "Legito s.r.o.", "address": "Pod Lipami 19, Zem\u011bchy, 278 01 Kralupy nad Vltavou, Czechia", "url": "www.legito.com"}, "type": "Feature"}, {"geometry": {"coordinates": [16.6048931, 49.1625693], "type": "Point"}, "properties": {"name": "ThreatMark s.r.o.", "address": "Pra\u017e\u00e1kova 213/10, Horn\u00ed Her\u0161pice, 619 00 Brno-Brno-jih, Czechia", "url": "www.threatmark.com"}, "type": "Feature"}, {"geometry": {"coordinates": [14.5126978, 50.05807009999999], "type": "Point"}, "properties": {"name": "Largos Media", "address": "Stra\u0161nick\u00e1 3165/1b, Z\u00e1b\u011bhlice, 102 00 Praha-Praha 10, Czechia", "url": "www.viagoood.com"}, "type": "Feature"}, {"geometry": {"coordinates": [14.3911856, 50.1671296], "type": "Point"}, "properties": {"name": "Incomaker s.r.o.", "address": "Ha\u0161kova 1582, 252 63 Roztoky, Czechia", "url": "www.incomaker.com"}, "type": "Feature"}, {"geometry": {"coordinates": [13.3034969, 49.3992116], "type": "Point"}, "properties": {"name": "NANITS UNIVERSE LTD.", "address": "Nuderova 598, Klatovy II, 339 01 Klatovy, Czechia", "url": "www.nanitschronicles.com"}, "type": "Feature"}, {"geometry": {"coordinates": [13.5936585, 50.6062473], "type": "Point"}, "properties": {"name": "Battswap CZ s.r.o.", "address": "Sokolsk\u00e1 30, \u0160umn\u00e1, 436 01 Litv\u00ednov, Czechia", "url": "www.battswap.com"}, "type": "Feature"}, {"geometry": {"coordinates": [14.5098211, 50.1037833], "type": "Point"}, "properties": {"name": "Simple Dent s.r.o.", "address": "Pod Harfou 938/40, Vyso\u010dany, 190 00 Praha-Praha 9, Czechia", "url": "www.simpledent.cz, http://app.simpledent.cz"}, "type": "Feature"}, {"geometry": {"coordinates": [14.4632941, 50.0695092], "type": "Point"}, "properties": {"name": "XEVOS Group s.r.o.", "address": "Koda\u0148sk\u00e1 1441/46, Vr\u0161ovice, 101 00 Praha-Praha 10, Czechia", "url": "www.xevos.eu, www.xevos.cloud"}, "type": "Feature"}, {"geometry": {"coordinates": [15.3519128, 50.4434139], "type": "Point"}, "properties": {"name": "Dataddo s.r.o.", "address": "V. Dobi\u00e1\u0161e 549, Hol\u00ednsk\u00e9 P\u0159edm\u011bst\u00ed, 506 01 Ji\u010d\u00edn, Czechia", "url": "www.dataddo.com"}, "type": "Feature"}, {"geometry": {"coordinates": [14.460389, 50.0785823], "type": "Point"}, "properties": {"name": "Decissio s.r.o.", "address": "Ji\u010d\u00ednsk\u00e1 226/17, \u017di\u017ekov, 130 00 Praha-Praha 3, Czechia", "url": "http://decissio.com"}, "type": "Feature"}, {"geometry": {"coordinates": [16.5868486, 49.2125825], "type": "Point"}, "properties": {"name": "AquaQube s.r.o.", "address": "Chl\u00e1dkova 2016/24c, 616 00 Brno-Brno-\u017dabov\u0159esky, Czechia", "url": "www.AquaQube.cz"}, "type": "Feature"}, {"geometry": {"coordinates": [14.4260748, 50.09028610000001], "type": "Point"}, "properties": {"name": "Brightify s.r.o.", "address": "Rybn\u00e1 716/24, Star\u00e9 M\u011bsto, 110 00 Praha-Praha 1, Czechia", "url": "www.brightify.org, www.reactant.tech"}, "type": "Feature"}, {"geometry": {"coordinates": [14.3240562, 50.0864261], "type": "Point"}, "properties": {"name": "StatusDroid s.r.o.", "address": "Mladotick\u00e1 282/13, Ruzyn\u011b, 161 00 Praha-Praha 6, Czechia", "url": "www.statusdroid.com"}, "type": "Feature"}, {"geometry": {"coordinates": [16.6048931, 49.1625693], "type": "Point"}, "properties": {"name": "Threatmark s.r.o.", "address": "Pra\u017e\u00e1kova 213/10, Horn\u00ed Her\u0161pice, 619 00 Brno-Brno-jih, Czechia", "url": "https://www.threatmark.com/ "}, "type": "Feature"}, {"geometry": {"coordinates": [14.4719017, 48.9563745], "type": "Point"}, "properties": {"name": "PlasmaAgro s.r.o.", "address": "Jungmannova 695/42, \u010cesk\u00e9 Bud\u011bjovice 7, 370 01 \u010cesk\u00e9 Bud\u011bjovice, Czechia", "url": "http://plasma-agro.cz/cs/domu/ "}, "type": "Feature"}, {"geometry": {"coordinates": [16.2269446, 50.40282510000001], "type": "Point"}, "properties": {"name": "Nadkov s.r.o.", "address": "\u010cesk\u00e1 \u010cermn\u00e1 148, 549 21 \u010cesk\u00e1 \u010cermn\u00e1, Czechia", "url": "http://www.nadkov.cz/ "}, "type": "Feature"}, {"geometry": {"coordinates": [16.6205777, 49.18993769999999], "type": "Point"}, "properties": {"name": "Webscope", "address": "Cyrilsk\u00e1 7, 602 00 Brno-st\u0159ed-Trnit\u00e1, Czechia", "url": "https://www.goodevent.io/ "}, "type": "Feature"}, {"geometry": {"coordinates": [14.3240562, 50.0864261], "type": "Point"}, "properties": {"name": "StatusDroid s.r.o.", "address": "Mladotick\u00e1 282/13, Ruzyn\u011b, 161 00 Praha-Praha 6, Czechia", "url": "www.statusdroid.com"}, "type": "Feature"}, {"geometry": {"coordinates": [16.5613942, 49.2473202], "type": "Point"}, "properties": {"name": "Langino.s.r.o.", "address": "Brno 242, 621 00 Brno, Czechia", "url": "https://langino.com/ "}, "type": "Feature"}, {"geometry": {"coordinates": [16.6282153, 49.1696395], "type": "Point"}, "properties": {"name": "SuperKod\u00e9\u0159i s.r.o.", "address": "Hn\u011bvkovsk\u00e9ho 30/65, Kom\u00e1rov, 617 00 Brno-Brno-jih, Czechia", "url": "http://www.superkoderi.cz/ "}, "type": "Feature"}, {"geometry": {"coordinates": [16.5997955, 49.2032046], "type": "Point"}, "properties": {"name": "FROU FROU, s.r.o.", "address": "Kounicova 290/51, Veve\u0159\u00ed, 602 00 Brno-Brno-st\u0159ed, Czechia", "url": "http://60seconds.cz/ "}, "type": "Feature"}, {"geometry": {"coordinates": [16.6282153, 49.1696395], "type": "Point"}, "properties": {"name": "New Era Materials s.r.o.", "address": "Hn\u011bvkovsk\u00e9ho 30/65, Kom\u00e1rov, 617 00 Brno-Brno-jih, Czechia", "url": "http://as-set-cz.webnode.cz/ "}, "type": "Feature"}], "type": "FeatureCollection"}